CGNDB ID,Geographical Name,Language,Syllabic Form,Generic Term,Generic Category,Concise Code,Toponymic Feature ID,Latitude,Longitude,Location,Province - Territory,Relevance at Scale,Decision Date,Source
IAQFR,Airdrie,Undetermined,,City,Populated Place,CITY,6bbac775d05511d892e2080020a0f4c9,51.2922222,-114.0141667,12-27-1-W5,Alberta,7500000,1995-01-01,Alberta Culture and Tourism
IARFF,Athabasca,Undetermined,,Town,Populated Place,TOWN,7f0549f5d05511d892e2080020a0f4c9,54.7166666,-113.2841667,16-66-22-W4,Alberta,7500000,1995-01-01,Alberta Culture and Tourism
IACYE,Banff,Undetermined,,Town,Populated Place,TOWN,7b1af00ed05511d892e2080020a0f4c9,51.1777778,-115.5736111,25-12-W5,Alberta,15000000,1995-01-01,Alberta Culture and Tourism
IADKX,Barrhead,Undetermined,,Town,Populated Place,TOWN,6932479cd05511d892e2080020a0f4c9,54.1216667,-114.4036111,59-3-W5,Alberta,7500000,1995-01-01,Alberta Culture and Tourism
IADLO,Bashaw,Undetermined,,Town,Populated Place,TOWN,7b315e40d05511d892e2080020a0f4c9,52.5830555,-112.9702778,4-42-21-W4,Alberta,1000000,1995-01-01,Alberta Culture and Tourism
IADLQ,Bassano,Undetermined,,Town,Populated Place,TOWN,693d923dd05511d892e2080020a0f4c9,50.7875,-112.4683333,17-21-18-W4,Alberta,1000000,1995-01-01,Alberta Culture and Tourism
IADZF,Beaumont,Undetermined,,City,Populated Place,CITY,6948dcded05511d892e2080020a0f4c9,53.3525,-113.4152778,34-50-24-W4,Alberta,1000000,2018-12-11,Alberta Culture and Tourism
IAEAU,Beaverlodge,Undetermined,,Town,Populated Place,TOWN,7b47f382d05511d892e2080020a0f4c9,55.2091667,-119.4288889,2-72-10-W6,Alberta,1000000,1995-01-01,Alberta Culture and Tourism
IAGFH,Black Diamond,Undetermined,,Town,Populated Place,TOWN,7be9b1d0d05511d892e2080020a0f4c9,50.6880556,-114.2344444,8-20-2-W5,Alberta,1000000,1995-01-01,Alberta Culture and Tourism
IAGFN,Blackfalds,Undetermined,,Town,Populated Place,TOWN,8884a624c6be11d892e2080020a0f4c9,52.3783333,-113.7961111,26-39-27-W4,Alberta,1000000,2002-01-01,Alberta Culture and Tourism
IAREZ,Bon Accord,Undetermined,,Town,Populated Place,TOWN,7ef9ff54d05511d892e2080020a0f4c9,53.8369444,-113.4122222,18-56-23-W4,Alberta,1000000,1995-01-01,Alberta Culture and Tourism
IAHBP,Bonnyville,Undetermined,,Town,Populated Place,TOWN,7bf4d561d05511d892e2080020a0f4c9,54.2672222,-110.7386111,"7,18-61-5-W4",Alberta,7500000,1995-01-01,Alberta Culture and Tourism
IAHYT,Bow Island,Undetermined,,Town,Populated Place,TOWN,7c59d8cad05511d892e2080020a0f4c9,49.8672222,-111.3788889,36-10-11-W4,Alberta,1000000,1995-01-01,Alberta Culture and Tourism
IAHDR,Bowden,Undetermined,,Town,Populated Place,TOWN,7c004712d05511d892e2080020a0f4c9,51.9322222,-114.0347222,23-34-1-W5,Alberta,1000000,1995-01-01,Alberta Culture and Tourism
IAIDN,Brooks,Undetermined,,City,Populated Place,CITY,7c65236bd05511d892e2080020a0f4c9,50.567222,-111.895,32-18-14-W4,Alberta,7500000,2005-09-01,Alberta Culture and Tourism
IAJHT,Bruderheim,Undetermined,,Town,Populated Place,TOWN,6a64fb57d05511d892e2080020a0f4c9,53.7997222,-112.9283333,32-55-20-W4,Alberta,1000000,1995-01-01,Alberta Culture and Tourism
IAKID,Calgary,Undetermined,,City,Populated Place,CITY,6a8ad2dad05511d892e2080020a0f4c9,51.0458333,-114.0574999,24-1-W5,Alberta,15000000,1995-01-01,Alberta Culture and Tourism
IAKIL,Calmar,Undetermined,,Town,Populated Place,TOWN,8bb09102c6be11d892e2080020a0f4c9,53.2577778,-113.8108333,25-49-27-W4,Alberta,1000000,2002-06-01,Alberta Culture and Tourism
IAKKF,Camrose,Undetermined,,City,Populated Place,CITY,7a88c221d05511d892e2080020a0f4c9,53.0247222,-112.8241667,"46,47-20-W4",Alberta,7500000,1995-01-01,Alberta Culture and Tourism
IAPEQ,Canmore,Undetermined,,Town,Populated Place,TOWN,7ec1d84fd05511d892e2080020a0f4c9,51.0830555,-115.3683333,32-24-10-W4,Alberta,7500000,1995-01-01,Alberta Culture and Tourism
IAKML,Cardston,Undetermined,,Town,Populated Place,TOWN,7d77cc03d05511d892e2080020a0f4c9,49.2,-113.3038889,9-3-25-W4,Alberta,7500000,1995-01-01,Alberta Culture and Tourism
IALCI,Carstairs,Undetermined,,Town,Populated Place,TOWN,7cfd6bd8d05511d892e2080020a0f4c9,51.5655555,-114.0994444,17-30-1-W5,Alberta,1000000,1995-01-01,Alberta Culture and Tourism
IALMX,Castor,Undetermined,,Town,Populated Place,TOWN,7dbb1699d05511d892e2080020a0f4c9,52.2191667,-111.9036111,35-37-14-W4,Alberta,1000000,1995-01-01,Alberta Culture and Tourism
IAJAV,Chestermere,Undetermined,,Town,Populated Place,TOWN,7c868e1ed05511d892e2080020a0f4c9,51.0333333,-113.8166667,3-24-28-W4,Alberta,1000000,1995-01-01,Alberta Culture and Tourism
IAMMS,Claresholm,Undetermined,,Town,Populated Place,TOWN,7de7a4ddd05511d892e2080020a0f4c9,50.0197222,-113.5827778,26-12-27-W4,Alberta,7500000,1995-01-01,Alberta Culture and Tourism
IANEO,Coaldale,Undetermined,,Town,Populated Place,TOWN,7e20b642d05511d892e2080020a0f4c9,49.7277777,-112.6186111,11-9-20-W4,Alberta,1000000,1995-01-01,Alberta Culture and Tourism
IANEP,Coalhurst,Undetermined,,Town,Populated Place,TOWN,6b07f225d05511d892e2080020a0f4c9,49.7486111,-112.9294444,21-9-22-W4,Alberta,1000000,1995-06-01,Alberta Culture and Tourism
IAADI,Cochrane,Undetermined,,Town,Populated Place,TOWN,7a93bea2d05511d892e2080020a0f4c9,51.2066667,-114.4669444,"2,3-26-4-W5",Alberta,1000000,1995-01-01,Alberta Culture and Tourism
IAEFD,Cold Lake,Undetermined,,City,Populated Place,CITY,36b90f59c6ce11d892e2080020a0f4c9,54.45,-110.1666667,24-63-2-W4,Alberta,7500000,1995-01-01,Alberta Culture and Tourism
IANKG,Coronation,Undetermined,,Town,Populated Place,TOWN,7e2c00e3d05511d892e2080020a0f4c9,52.0947223,-111.4477778,13-36-11-W4,Alberta,1000000,1995-01-01,Alberta Culture and Tourism
IAOEN,Crossfield,Undetermined,,Town,Populated Place,TOWN,6b56393cd05511d892e2080020a0f4c9,51.4305556,-114.0308333,26-28-1-W5,Alberta,1000000,1995-01-01,Alberta Culture and Tourism
IAJBR,Crowsnest Pass,Undetermined,,Town,Populated Place,TOWN,7c95341fd05511d892e2080020a0f4c9,49.5888889,-114.5083333,32-7-4-W5,Alberta,7500000,1996-01-01,Alberta Culture and Tourism
IAPSJ,Daysland,Undetermined,,Town,Populated Place,TOWN,7ee34302d05511d892e2080020a0f4c9,52.8641666,-112.255,9-45-16-W4,Alberta,1000000,1955-01-20,Alberta Culture and Tourism
IABBD,Devon,Undetermined,,Town,Populated Place,TOWN,7aa9b7a4d05511d892e2080020a0f4c9,53.3622223,-113.7225,34-50-26-W4,Alberta,1000000,1995-01-01,Alberta Culture and Tourism
IABMA,Didsbury,Undetermined,,Town,Populated Place,TOWN,7acad437d05511d892e2080020a0f4c9,51.6594444,-114.1375,18-31-1-W5,Alberta,1000000,1995-01-01,Alberta Culture and Tourism
IABOA,Drayton Valley,Undetermined,,Town,Populated Place,TOWN,7ad868c8d05511d892e2080020a0f4c9,53.2241667,-114.9808333,17-49-7-W5,Alberta,7500000,1995-01-01,Alberta Culture and Tourism
IABPA,Drumheller,Undetermined,,Town,Populated Place,TOWN,8b5e7a5ac6be11d892e2080020a0f4c9,51.4644444,-112.7188889,20-28-19-W4,Alberta,7500000,2003-01-01,Alberta Culture and Tourism
IACEK,Eckville,Undetermined,,Town,Populated Place,TOWN,8851af3fc6be11d892e2080020a0f4c9,52.36,-114.3669444,16-39-3-W5,Alberta,1000000,2002-01-01,Alberta Culture and Tourism
IACMP,Edmonton,Undetermined,,City,Populated Place,CITY,8b296095c6be11d892e2080020a0f4c9,53.5344445,-113.4902778,,Alberta,30000000,2002-01-01,Alberta Culture and Tourism
IACMW,Edson,Undetermined,,Town,Populated Place,TOWN,68e3b265d05511d892e2080020a0f4c9,53.5836111,-116.4327778,53-17-W5,Alberta,7500000,1995-01-01,Alberta Culture and Tourism
IACOR,Elk Point,Undetermined,,Town,Populated Place,TOWN,7b0ff38dd05511d892e2080020a0f4c9,53.9011111,-110.9005556,57-7-W4,Alberta,1000000,1995-01-01,Alberta Culture and Tourism
IADDJ,Fairview,Undetermined,,Town,Populated Place,TOWN,6926fcfbd05511d892e2080020a0f4c9,56.0672222,-118.3841667,34-81-3-W6,Alberta,7500000,1995-01-01,Alberta Culture and Tourism
IADDT,Falher,Undetermined,,Town,Populated Place,TOWN,7b2661bfd05511d892e2080020a0f4c9,55.7372222,-117.2013889,4-78-21-W5,Alberta,1000000,1995-01-01,Alberta Culture and Tourism
IAFFG,Fort Macleod,Undetermined,,Town,Populated Place,TOWN,7b8c7698d05511d892e2080020a0f4c9,49.7230555,-113.4041667,12-9-26-W4,Alberta,7500000,1995-01-01,Alberta Culture and Tourism
IAFFM,Fort Saskatchewan,Undetermined,,City,Populated Place,CITY,7a5be5bdd05511d892e2080020a0f4c9,53.7111111,-113.2177778,32-54-22-W4,Alberta,7500000,2002-01-01,Alberta Culture and Tourism
IAFHC,Fox Creek,Undetermined,,Town,Populated Place,TOWN,537fcd90c6be11d892e2080020a0f4c9,54.3941666,-116.8066667,32-62-19-W5,Alberta,7500000,2002-01-01,Alberta Culture and Tourism
IAASX,Gibbons,Undetermined,,Town,Populated Place,TOWN,7ae3b369d05511d892e2080020a0f4c9,53.8297222,-113.3283333,10-56-23-W4,Alberta,1000000,1995-01-01,Alberta Culture and Tourism
IAHMM,Grande Prairie,Undetermined,,City,Populated Place,CITY,7a67094ed05511d892e2080020a0f4c9,55.1708334,-118.7961111,71-6-W6,Alberta,15000000,1995-01-01,Alberta Culture and Tourism
IAHQY,Grimshaw,Undetermined,,Town,Populated Place,TOWN,7c2c6026d05511d892e2080020a0f4c9,56.1886112,-117.6058333,17-83-23-W5,Alberta,7500000,1995-01-01,Alberta Culture and Tourism
IAINF,Hanna,Undetermined,,Town,Populated Place,TOWN,7c7046fcd05511d892e2080020a0f4c9,51.6458334,-111.9252778,9-31-14-W4,Alberta,7500000,1995-01-01,Alberta Culture and Tourism
IAINT,Hardisty,Undetermined,,Town,Populated Place,TOWN,7c7b6a8dd05511d892e2080020a0f4c9,52.675,-111.3044444,6-43-9-W4,Alberta,1000000,1995-01-01,Alberta Culture and Tourism
IAJVJ,High Level,Undetermined,,Town,Populated Place,TOWN,9f6d72f0d05411d892e2080020a0f4c9,58.5180555,-117.1288889,110-19-W5,Alberta,15000000,1995-01-01,Alberta Culture and Tourism
IAJVM,High Prairie,Undetermined,,Town,Populated Place,TOWN,7caba251d05511d892e2080020a0f4c9,55.4322223,-116.4944444,25-74-17-W5,Alberta,7500000,1995-01-01,Alberta Culture and Tourism
IAJVO,High River,Undetermined,,Town,Populated Place,TOWN,8b72c5acc6be11d892e2080020a0f4c9,50.5797223,-113.8741667,6-19-28-W4,Alberta,7500000,2002-07-01,Alberta Culture and Tourism
IAJWU,Hinton,Undetermined,,Town,Populated Place,TOWN,7cba9672d05511d892e2080020a0f4c9,53.4111111,-117.5627778,"51-24,25-W5",Alberta,15000000,1995-01-01,Alberta Culture and Tourism
IALBX,Innisfail,Undetermined,,Town,Populated Place,TOWN,7da4cf77d05511d892e2080020a0f4c9,52.028139,-113.950639,21-35-28-W4,Alberta,7500000,1995-01-01,Alberta Culture and Tourism
IALYH,Irricana,Undetermined,,Town,Populated Place,TOWN,8be47247c6be11d892e2080020a0f4c9,51.3236111,-113.6080556,21-27-26-W4,Alberta,1000000,2002-02-20,Alberta Culture and Tourism
IABDM,Killam,Undetermined,,Town,Populated Place,TOWN,68884cedd05511d892e2080020a0f4c9,52.7897223,-111.8552778,17-44-13-W4,Alberta,1000000,1995-01-01,Alberta Culture and Tourism
IABSI,Lac La Biche,Undetermined,,Town,Populated Place,TOWN,7aeeafead05511d892e2080020a0f4c9,54.7702778,-111.9791667,6-67-13-W4,Alberta,7500000,1995-01-01,Alberta Culture and Tourism
IABSM,Lacombe,Undetermined,,City,Populated Place,CITY,68aa79f0d05511d892e2080020a0f4c9,52.464444,-113.734167,30-40-26-W4,Alberta,7500000,1995-01-01,Alberta Culture and Tourism
IACGW,Lamont,Undetermined,,Town,Populated Place,TOWN,7b04cffcd05511d892e2080020a0f4c9,53.7591666,-112.7844444,55-19-W4,Alberta,1000000,1995-01-01,Alberta Culture and Tourism
IACUJ,Leduc,Undetermined,,City,Populated Place,CITY,7a7d2960d05511d892e2080020a0f4c9,53.2666666,-113.5458333,49-25-W4,Alberta,7500000,1995-01-01,Alberta Culture and Tourism
IACUY,Legal,Undetermined,,Town,Populated Place,TOWN,7a02f045d05511d892e2080020a0f4c9,53.9495,-113.595111,24-57-25-W4,Alberta,1000000,1998-01-01,Alberta Culture and Tourism
IADGP,Lethbridge,Undetermined,,City,Populated Place,CITY,9d7ced64d05411d892e2080020a0f4c9,49.6936111,-112.8419444,"8,9-21-W4",Alberta,15000000,1995-01-01,Alberta Culture and Tourism
IADVK,Lloydminster,Undetermined,,City,Populated Place,CITY,5bc0b0f5ba3411d892e2080020a0f4c9,53.2838889,-110,1-50-1-W4,Alberta,15000000,1995-01-01,Alberta Culture and Tourism
IAGRW,Magrath,Undetermined,,Town,Populated Place,TOWN,69f2ff9dd05511d892e2080020a0f4c9,49.4077778,-112.8666667,5-22-W4,Alberta,1000000,1995-01-01,Alberta Culture and Tourism
IAGUD,Manning,Undetermined,,Town,Populated Place,TOWN,8b688c7bc6be11d892e2080020a0f4c9,56.9222222,-117.6283333,28-91-23-W5,Alberta,7500000,2001-11-28,Alberta Culture and Tourism
IAHVB,Mayerthorpe,Undetermined,,Town,Populated Place,TOWN,7c37d1d7d05511d892e2080020a0f4c9,53.9547222,-115.1380556,28-57-8-W5,Alberta,1000000,1995-01-01,Alberta Culture and Tourism
IAHYE,McLennan,Undetermined,,Town,Populated Place,TOWN,7c42f568d05511d892e2080020a0f4c9,55.7086111,-116.9072222,32-77-19-W5,Alberta,1000000,1995-01-01,Alberta Culture and Tourism
IAIUC,Medicine Hat,Undetermined,,City,Populated Place,CITY,7a722cdfd05511d892e2080020a0f4c9,50.0408334,-110.6766667,12-5-W4,Alberta,7500000,1995-01-01,Alberta Culture and Tourism
IAJZQ,Milk River,Undetermined,,Town,Populated Place,TOWN,7d615dd1d05511d892e2080020a0f4c9,49.15,-112.0866667,28-2-16-W4,Alberta,7500000,1995-01-01,Alberta Culture and Tourism
IAKAM,Millet,Undetermined,,Town,Populated Place,TOWN,7d6ca872d05511d892e2080020a0f4c9,53.0961111,-113.4727778,32-47-24-W4,Alberta,1000000,1995-01-01,Alberta Culture and Tourism
IALHY,Morinville,Undetermined,,Town,Populated Place,TOWN,7db04128d05511d892e2080020a0f4c9,53.8027778,-113.6438889,"55,56-25-W4",Alberta,1000000,1995-01-01,Alberta Culture and Tourism
IAMFL,Mundare,Undetermined,,Town,Populated Place,TOWN,7ddc814cd05511d892e2080020a0f4c9,53.5938889,-112.3416667,19-53-16-W4,Alberta,1000000,1995-01-01,Alberta Culture and Tourism
IAMSK,Nanton,Undetermined,,Town,Populated Place,TOWN,7e09f9f0d05511d892e2080020a0f4c9,50.35,-113.7666667,15-16-28-W4,Alberta,1000000,1995-01-01,Alberta Culture and Tourism
IANAR,Okotoks,Siksika,,Town,Populated Place,TOWN,8bbaca33c6be11d892e2080020a0f4c9,50.7261111,-113.9775,28-20-29-W4,Alberta,1000000,2004-01-01,Alberta Culture and Tourism
IAONC,Olds,Undetermined,,Town,Populated Place,TOWN,7e636498d05511d892e2080020a0f4c9,51.7919444,-114.1075,32-32-1-W5,Alberta,1000000,1995-01-01,Alberta Culture and Tourism
IANYJ,Oyen,Undetermined,,Town,Populated Place,TOWN,7e4220f5d05511d892e2080020a0f4c9,51.3527778,-110.4833333,34-27-4-W4,Alberta,7500000,1995-01-01,Alberta Culture and Tourism
IAEWL,Peace River,Undetermined,,Town,Populated Place,TOWN,7b740c96d05511d892e2080020a0f4c9,56.2358334,-117.2986111,"83,84-21-W5",Alberta,7500000,1995-01-01,Alberta Culture and Tourism
IAQKF,Penhold,Undetermined,,Town,Populated Place,TOWN,7eeeb4b3d05511d892e2080020a0f4c9,52.1369444,-113.8730556,36-36-28-W4,Alberta,1000000,1995-01-01,Alberta Culture and Tourism
IABJB,Picture Butte,Undetermined,,Town,Populated Place,TOWN,7ab4b425d05511d892e2080020a0f4c9,49.8769444,-112.7797222,2-11-21-W4,Alberta,1000000,1995-01-01,Alberta Culture and Tourism
IABJX,Pincher Creek,Undetermined,,Town,Populated Place,TOWN,7abfb0a6d05511d892e2080020a0f4c9,49.4852778,-113.9475,6-30-W4,Alberta,7500000,1995-01-01,Alberta Culture and Tourism
IABXV,Ponoka,Siksika,,Town,Populated Place,TOWN,7af9ac6bd05511d892e2080020a0f4c9,52.675,-113.58,4-43-25-W4,Alberta,7500000,1995-01-01,Alberta Culture and Tourism
IADQF,Provost,Undetermined,,Town,Populated Place,TOWN,7b3ca8e1d05511d892e2080020a0f4c9,52.3533333,-110.2647222,17-39-2-W4,Alberta,7500000,1995-01-01,Alberta Culture and Tourism
IAEGE,Rainbow Lake,Undetermined,,Town,Populated Place,TOWN,7b52f003d05511d892e2080020a0f4c9,58.5044444,-119.4002778,109-9-W6,Alberta,7500000,1995-01-01,Alberta Culture and Tourism
IAEIX,Raymond,Undetermined,,Town,Populated Place,TOWN,7a2f3069d05511d892e2080020a0f4c9,49.465,-112.6611111,6-20-W4,Alberta,1000000,1995-01-01,Alberta Culture and Tourism
IAEJS,Red Deer,Undetermined,,City,Populated Place,CITY,7a509b1cd05511d892e2080020a0f4c9,52.2686111,-113.8102778,16-38-27-W4,Alberta,15000000,1995-01-01,Alberta Culture and Tourism
IAEJQ,Redcliff,Undetermined,,Town,Populated Place,TOWN,7b5e1394d05511d892e2080020a0f4c9,50.0775,-110.7855556,8-13-6-W4,Alberta,1000000,1995-01-01,Alberta Culture and Tourism
IAEKV,Redwater,Undetermined,,Town,Populated Place,TOWN,7b693725d05511d892e2080020a0f4c9,53.9508334,-113.1075,30-57-21-W4,Alberta,1000000,1995-01-01,Alberta Culture and Tourism
IAEYK,Rimbey,Undetermined,,Town,Populated Place,TOWN,7b7ff377d05511d892e2080020a0f4c9,52.6391667,-114.2366667,28-42-2-W5,Alberta,1000000,1995-01-01,Alberta Culture and Tourism
IAFOG,Rocky Mountain House,Undetermined,,Town,Populated Place,TOWN,7bd31c8ed05511d892e2080020a0f4c9,52.3747222,-114.9219444,22-39-7-W5,Alberta,7500000,1995-01-01,Alberta Culture and Tourism
IAHHS,Sedgewick,Undetermined,,Town,Populated Place,TOWN,7c0b4393d05511d892e2080020a0f4c9,52.7747223,-111.6927778,9-44-12-W4,Alberta,1000000,1995-01-01,Alberta Culture and Tourism
IAHJF,Sexsmith,Undetermined,,Town,Populated Place,TOWN,7c166724d05511d892e2080020a0f4c9,55.3502778,-118.7816667,25-73-6-W6,Alberta,1000000,1995-01-01,Alberta Culture and Tourism
IAIJK,Slave Lake,Undetermined,,Town,Populated Place,TOWN,6a4390a4d05511d892e2080020a0f4c9,55.2822222,-114.7702778,31-72-5-W5,Alberta,7500000,1995-01-01,Alberta Culture and Tourism
IAJND,Smoky Lake,Undetermined,,Town,Populated Place,TOWN,7ca0a5d0d05511d892e2080020a0f4c9,54.1166666,-112.4666667,22-59-17-W4,Alberta,1000000,1995-01-01,Alberta Culture and Tourism
IAKPR,Spirit River,Undetermined,,Town,Populated Place,TOWN,7d8316a4d05511d892e2080020a0f4c9,55.7786111,-118.8366667,22-78-6-W6,Alberta,7500000,1995-01-01,Alberta Culture and Tourism
IAKRM,Spruce Grove,Undetermined,,City,Populated Place,CITY,6aa1410cd05511d892e2080020a0f4c9,53.5538889,-113.9022222,3-53-27-W4,Alberta,7500000,1995-01-01,Alberta Culture and Tourism
IAGHN,St. Albert,Undetermined,,City,Populated Place,CITY,8b3372b6c6be11d892e2080020a0f4c9,53.6369444,-113.6202778,4-54-25-W4,Alberta,7500000,2002-01-01,Alberta Culture and Tourism
IAGIL,St. Paul,Undetermined,,Town,Populated Place,TOWN,69ba8a78d05511d892e2080020a0f4c9,53.9927777,-111.2961111,8-58-9-W4,Alberta,7500000,1995-01-01,Alberta Culture and Tourism
IAKTN,Stavely,Undetermined,,Town,Populated Place,TOWN,7d8e6145d05511d892e2080020a0f4c9,50.1611111,-113.6416667,8-14-27-W4,Alberta,1000000,1995-01-01,Alberta Culture and Tourism
IAKUR,Stettler,Undetermined,,Town,Populated Place,TOWN,7d995dc6d05511d892e2080020a0f4c9,52.3238889,-112.7044444,5-39-19-W4,Alberta,7500000,1995-01-01,Alberta Culture and Tourism
IALSL,Stony Plain,Undetermined,,Town,Populated Place,TOWN,7dc63a2ad05511d892e2080020a0f4c9,53.5263889,-114.0069444,36-52-1-W5,Alberta,1000000,1995-01-01,Alberta Culture and Tourism
IALTU,Strathmore,Undetermined,,Town,Populated Place,TOWN,7dd136abd05511d892e2080020a0f4c9,51.0455556,-113.3930556,14-24-25-W4,Alberta,1000000,1995-01-01,Alberta Culture and Tourism
IAMOD,Sundre,Undetermined,,Town,Populated Place,TOWN,7df38bbed05511d892e2080020a0f4c9,51.7955555,-114.6377778,3-33-5-W5,Alberta,1000000,1995-01-01,Alberta Culture and Tourism
IAMQE,Swan Hills,Undetermined,,Town,Populated Place,TOWN,7dfed65fd05511d892e2080020a0f4c9,54.7166666,-115.4016667,14-66-10-W5,Alberta,7500000,1995-01-01,Alberta Culture and Tourism
IAMRT,Sylvan Lake,Undetermined,,Town,Populated Place,TOWN,a081f047d05411d892e2080020a0f4c9,52.3088888,-114.0977778,38-1-W5,Alberta,1000000,1995-01-01,Alberta Culture and Tourism
IAAFM,Taber,Undetermined,,Town,Populated Place,TOWN,7a9ebb23d05511d892e2080020a0f4c9,49.78475,-112.150972,5-10-16-W4,Alberta,7500000,1995-01-01,Alberta Culture and Tourism
IAMTX,Thorsby,Undetermined,,Town,Populated Place,TOWN,5545c0adc6be11d892e2080020a0f4c9,53.2269445,-114.0480556,14-49-1-W5,Alberta,1000000,2016-12-13,Alberta Culture and Tourism
IAMUB,Three Hills,Undetermined,,Town,Populated Place,TOWN,7e156ba1d05511d892e2080020a0f4c9,51.7030555,-113.2686111,36-31-24-W4,Alberta,1000000,1995-01-01,Alberta Culture and Tourism
IANTB,Tofield,Undetermined,,Town,Populated Place,TOWN,6b34ce89d05511d892e2080020a0f4c9,53.3708333,-112.6658333,1-51-19-W4,Alberta,1000000,1995-01-01,Alberta Culture and Tourism
IAOUD,Trochu,Undetermined,,Town,Populated Place,TOWN,7e91a08bd05511d892e2080020a0f4c9,51.8286111,-113.2280556,17-33-23-W4,Alberta,1000000,1995-01-01,Alberta Culture and Tourism
IAOVI,Turner Valley,Undetermined,,Town,Populated Place,TOWN,7e9ebfecd05511d892e2080020a0f4c9,50.6752778,-114.2802778,12-20-3-W5,Alberta,1000000,1995-01-01,Alberta Culture and Tourism
IAOXK,Two Hills,Undetermined,,Town,Populated Place,TOWN,7eaaf4edd05511d892e2080020a0f4c9,53.7111111,-111.7447222,32-54-12-W4,Alberta,1000000,1941-09-11,Alberta Culture and Tourism
IAOBD,Valleyview,Undetermined,,Town,Populated Place,TOWN,6b3ff21ad05511d892e2080020a0f4c9,55.065944,-117.281861,21-70-22-W5,Alberta,7500000,1995-01-01,Alberta Culture and Tourism
IAOBO,Vauxhall,Undetermined,,Town,Populated Place,TOWN,7e4d4486d05511d892e2080020a0f4c9,50.0683333,-112.1066667,10-13-16-W4,Alberta,1000000,1995-01-01,Alberta Culture and Tourism
IAOBT,Vegreville,Undetermined,,Town,Populated Place,TOWN,7e372474d05511d892e2080020a0f4c9,53.4955555,-112.0516667,18-52-14-W4,Alberta,7500000,1995-01-01,Alberta Culture and Tourism
IAOMB,Vermilion,Undetermined,,Town,Populated Place,TOWN,7e586817d05511d892e2080020a0f4c9,53.3547222,-110.8527778,32-50-6-W4,Alberta,7500000,1995-01-01,Alberta Culture and Tourism
IAONY,Viking,Undetermined,,Town,Populated Place,TOWN,7e6e8829d05511d892e2080020a0f4c9,53.0947222,-111.7755556,36-47-13-W4,Alberta,1000000,1995-01-01,Alberta Culture and Tourism
IAOPA,Vulcan,Undetermined,,Town,Populated Place,TOWN,7e79abbad05511d892e2080020a0f4c9,50.4041666,-113.2605556,5-17-24-W4,Alberta,1000000,1995-01-01,Alberta Culture and Tourism
IAOQH,Wainwright,Undetermined,,Town,Populated Place,TOWN,8bc52a74c6be11d892e2080020a0f4c9,52.8341666,-110.8580556,31-44-6-W4,Alberta,7500000,2002-01-01,Alberta Culture and Tourism
IAPGS,Wembley,Undetermined,,Town,Populated Place,TOWN,7eccfbe0d05511d892e2080020a0f4c9,55.1555556,-119.1458333,15-71-8-W6,Alberta,1000000,1995-01-01,Alberta Culture and Tourism
IAPIL,Westlock,Undetermined,,Town,Populated Place,TOWN,7ed7f861d05511d892e2080020a0f4c9,54.1552778,-113.8569444,5-60-26-W4,Alberta,7500000,1995-01-01,Alberta Culture and Tourism
IAPBB,Wetaskiwin,Cree,,City,Populated Place,CITY,8b3dfa07c6be11d892e2080020a0f4c9,52.9691667,-113.3769444,14-46-24-W4,Alberta,7500000,2003-01-01,Alberta Culture and Tourism
IAPCL,Whitecourt,Undetermined,,Town,Populated Place,TOWN,7eb63f8ed05511d892e2080020a0f4c9,54.1411111,-115.6841667,35-59-12-W5,Alberta,7500000,1995-01-01,Alberta Culture and Tourism
JABNO,Abbotsford,Undetermined,,City,Populated Place,CITY,c2fa52c6c6cd11d892e2080020a0f4c9,49.052222,-122.329167,New Westminster Land District,British Columbia,50000,1974-05-29,"British Columbia-Forests, Lands, Natural Resources"
JAQIY,Armstrong,Undetermined,,City,Populated Place,CITY,0c92f9cd849c20c37258de6ec3357848,50.448333,-119.196667,Kamloops Division Yale Land District,British Columbia,1000000,1951-02-07,"British Columbia-Forests, Lands, Natural Resources"
JAEBN,Burnaby,Undetermined,,City,Populated Place,CITY,a38fccccd05411d892e2080020a0f4c9,49.242778,-122.972778,New Westminster Land District,British Columbia,1000000,1936-02-11,"British Columbia-Forests, Lands, Natural Resources"
JCJEN,Campbell River,Undetermined,,City,Populated Place,CITY,163fec35c6ce11d892e2080020a0f4c9,50.023056,-125.243611,Sayward Land District,British Columbia,7500000,2005-05-31,"British Columbia-Forests, Lands, Natural Resources"
JCAAC,Castlegar,Undetermined,,City,Populated Place,CITY,14c3ac51c6ce11d892e2080020a0f4c9,49.324444,-117.666944,Kootenay Land District,British Columbia,7500000,1981-12-15,"British Columbia-Forests, Lands, Natural Resources"
JCVCC,Chilliwack,Undetermined,,City,Populated Place,CITY,1a6c0919c6ce11d892e2080020a0f4c9,49.157778,-121.950833,New Westminster Land District,British Columbia,50000,1999-11-08,"British Columbia-Forests, Lands, Natural Resources"
JZAYE,City of West Kelowna,Undetermined,,City,Populated Place,CITY,a5e9aaa40a00120437c2ec05e5802a89,49.83,-119.628611,Osoyoos Division Yale Land District,British Columbia,50000,2015-06-26,"British Columbia-Forests, Lands, Natural Resources"
JCLMX,Colwood,Undetermined,,City,Populated Place,CITY,5af9b031d05511d892e2080020a0f4c9,48.423611,-123.493333,Esquimalt Land District,British Columbia,250000,1985-07-04,"British Columbia-Forests, Lands, Natural Resources"
JCUYZ,Comox,Uncoded languages,,Town,Populated Place,TOWN,644a2db1d05511d892e2080020a0f4c9,49.672778,-124.927778,Comox Land District,British Columbia,1000000,1982-01-15,"British Columbia-Forests, Lands, Natural Resources"
JAXHI,Coquitlam,Uncoded languages,,City,Populated Place,CITY,b2642f1ad05411d892e2080020a0f4c9,49.284167,-122.793611,New Westminster Land District,British Columbia,1000000,1993-05-26,"British Columbia-Forests, Lands, Natural Resources"
JAHJY,Courtenay,Undetermined,,City,Populated Place,CITY,0cfab6a1849c20c3182bef2904bbc8b1,49.689444,-124.995833,Comox Land District,British Columbia,7500000,1948-10-07,"British Columbia-Forests, Lands, Natural Resources"
JAIQY,Cranbrook,Undetermined,,City,Populated Place,CITY,0cfacd9b849c20c33a4df73f8a590c4a,49.508056,-115.746944,Kootenay Land District,British Columbia,15000000,1939-12-12,"British Columbia-Forests, Lands, Natural Resources"
JAIUJ,Creston,Undetermined,,Town,Populated Place,TOWN,0cfacfaf849c20c38c304841451efd41,49.0975,-116.513056,Kootenay Land District,British Columbia,7500000,1966-01-01,"British Columbia-Forests, Lands, Natural Resources"
JAPCN,Dawson Creek,Undetermined,,City,Populated Place,CITY,0c926942849c20c304ab56ff4bcc068c,55.760556,-120.235556,Peace River Land District,British Columbia,7500000,1967-06-27,"British Columbia-Forests, Lands, Natural Resources"
JAYRE,Delta,Undetermined,,City,Populated Place,CITY,0c97475d849c20c37c7ea9c4d0fd96ba,49.084722,-123.058611,New Westminster Land District,British Columbia,1000000,2017-11-14,"British Columbia-Forests, Lands, Natural Resources"
JBBWA,Duncan,Undetermined,,City,Populated Place,CITY,0cfd85e7849c20c349666968b5d9fa0c,48.778611,-123.708056,Quamichan Land District,British Columbia,7500000,1939-12-12,"British Columbia-Forests, Lands, Natural Resources"
JARSS,Enderby,Undetermined,,City,Populated Place,CITY,6575dc88d05511d892e2080020a0f4c9,50.550556,-119.139444,Kamloops Division Yale Land District,British Columbia,1000000,1932-11-03,"British Columbia-Forests, Lands, Natural Resources"
JAVIB,Fernie,Undetermined,,City,Populated Place,CITY,0cfdee2e849c20c34949148346eeec37,49.504167,-115.062778,Kootenay Land District,British Columbia,7500000,1939-12-12,"British Columbia-Forests, Lands, Natural Resources"
JAGPB,Fort St. John,Undetermined,,City,Populated Place,CITY,c781b014c6cd11d892e2080020a0f4c9,56.2525,-120.846667,Peace River Land District,British Columbia,15000000,1981-12-15,"British Columbia-Forests, Lands, Natural Resources"
JCLMR,Gibsons,Undetermined,,Town,Populated Place,TOWN,5ae2cccfd05511d892e2080020a0f4c9,49.400278,-123.508889,New Westminster Land District,British Columbia,1000000,1983-03-31,"British Columbia-Forests, Lands, Natural Resources"
JBZLB,Golden,Undetermined,,Town,Populated Place,TOWN,148f2eccc6ce11d892e2080020a0f4c9,51.297778,-116.964722,Kootenay Land District,British Columbia,7500000,1981-12-15,"British Columbia-Forests, Lands, Natural Resources"
JAUUX,Grand Forks,Undetermined,,City,Populated Place,CITY,0cfde790849c20c3363106fa82610dd6,49.031111,-118.439167,Similkameen Division Yale Land District,British Columbia,7500000,1955-10-06,"British Columbia-Forests, Lands, Natural Resources"
JAEZN,Greenwood,Undetermined,,City,Populated Place,CITY,0c8cb998849c20c3641ea29c1b322d1d,49.088333,-118.676389,Similkameen Division Yale Land District,British Columbia,1000000,1955-10-06,"British Columbia-Forests, Lands, Natural Resources"
JAFNW,Kamloops,Shuswap,,City,Populated Place,CITY,0d082b8c849c20c36ee58e33a2789a23,50.675833,-120.339444,Kamloops Division Yale Land District,British Columbia,15000000,1927-06-07,"British Columbia-Forests, Lands, Natural Resources"
JAFUV,Kelowna,Okanagan,,City,Populated Place,CITY,4c409d19d05511d892e2080020a0f4c9,49.888056,-119.495556,Osoyoos Division Yale Land District,British Columbia,15000000,1994-07-13,"British Columbia-Forests, Lands, Natural Resources"
JAHBL,Kimberley,Undetermined,,City,Populated Place,CITY,0cfa7481849c20c3f4aac79247678d6e,49.685,-115.981667,Kootenay Land District,British Columbia,7500000,1932-10-04,"British Columbia-Forests, Lands, Natural Resources"
JAMZY,Ladysmith,Undetermined,,Town,Populated Place,TOWN,0cfbadbd849c20c36d8e13afd36b5fca,48.993333,-123.815556,Oyster Land District,British Columbia,7500000,1945-12-29,"British Columbia-Forests, Lands, Natural Resources"
JANBJ,Lake Cowichan,Undetermined,,Town,Populated Place,TOWN,abcd7aa6d05411d892e2080020a0f4c9,48.825833,-124.056389,Cowichan Land District,British Columbia,1000000,1997-04-28,"British Columbia-Forests, Lands, Natural Resources"
JAPRZ,Langford,Undetermined,,City,Populated Place,CITY,cd76f466c6cd11d892e2080020a0f4c9,48.449722,-123.504444,Esquimalt Land District,British Columbia,1000000,2004-07-15,"British Columbia-Forests, Lands, Natural Resources"
JAPSJ,Langley,Undetermined,,City,Populated Place,CITY,0c92afb3849c20c3b0a08a4e4d303f30,49.1025,-122.658056,New Westminster Land District,British Columbia,1000000,1955-07-07,"British Columbia-Forests, Lands, Natural Resources"
JAJYR,Maple Ridge,Undetermined,,City,Populated Place,CITY,0c8f5e47849c20c3a5b1d4ec43c3b216,49.22,-122.598889,New Westminster Land District,British Columbia,1000000,2014-09-09,"British Columbia-Forests, Lands, Natural Resources"
JCBSO,Merritt,Undetermined,,City,Populated Place,CITY,55ed6b70d05511d892e2080020a0f4c9,50.1125,-120.788333,Kamloops Division Yale Land District,British Columbia,2000000,1994-07-13,"British Columbia-Forests, Lands, Natural Resources"
JAQAL,Nanaimo,Uncoded languages,,City,Populated Place,CITY,0cfcee9c849c20c394f521c918782b23,49.163889,-123.938056,Nanaimo Land District,British Columbia,7500000,1939-12-12,"British Columbia-Forests, Lands, Natural Resources"
JAYDR,Nelson,Undetermined,,City,Populated Place,CITY,0cfe1334849c20c37e9b1fa6011bf556,49.493333,-117.295833,Kootenay Land District,British Columbia,7500000,1948-03-02,"British Columbia-Forests, Lands, Natural Resources"
JAZMR,New Westminster,Undetermined,,City,Populated Place,CITY,0c97ba83849c20c323fddaf0a1b2047f,49.206667,-122.910556,New Westminster Land District,British Columbia,1000000,1936-02-11,"British Columbia-Forests, Lands, Natural Resources"
JBFRV,North Vancouver,Undetermined,,City,Populated Place,CITY,0cfaf0b0849c20c3c4940e67299b33ab,49.320556,-123.073889,New Westminster Land District,British Columbia,1000000,1937-12-07,"British Columbia-Forests, Lands, Natural Resources"
JBHDU,Oliver,Undetermined,,Town,Populated Place,TOWN,4e7dbc0bd05511d892e2080020a0f4c9,49.1825,-119.550833,Similkameen Division Yale Land District,British Columbia,7500000,1991-11-08,"British Columbia-Forests, Lands, Natural Resources"
JBHJG,Osoyoos,Okanagan,,Town,Populated Place,TOWN,0deb32dfc6ce11d892e2080020a0f4c9,49.0325,-119.468333,Similkameen Division Yale Land District,British Columbia,7500000,1984-11-29,"British Columbia-Forests, Lands, Natural Resources"
JCCAG,Parksville,Undetermined,,City,Populated Place,CITY,1558c06fc6ce11d892e2080020a0f4c9,49.318056,-124.311389,Nanoose Land District,British Columbia,7500000,1986-05-01,"British Columbia-Forests, Lands, Natural Resources"
JCVCH,Penticton,Okanagan,,City,Populated Place,CITY,1a80f0abc6ce11d892e2080020a0f4c9,49.500833,-119.593889,Similkameen Division Yale Land District,British Columbia,7500000,1954-10-07,"British Columbia-Forests, Lands, Natural Resources"
JBEBY,Pitt Meadows,Undetermined,,City,Populated Place,CITY,0c9a1b8b849c20c3af32e9eed8f46827,49.220556,-122.690278,New Westminster Land District,British Columbia,50000,2006-12-13,"British Columbia-Forests, Lands, Natural Resources"
JBIEL,Port Alberni,Undetermined,,City,Populated Place,CITY,4efe84d6d05511d892e2080020a0f4c9,49.234444,-124.805833,Alberni Land District,British Columbia,7500000,1994-07-13,"British Columbia-Forests, Lands, Natural Resources"
JBFQD,Port Coquitlam,Undetermined,,City,Populated Place,CITY,0c9ae58f849c20c3dea46f5d2cb2eea1,49.261944,-122.780278,New Westminster Land District,British Columbia,1000000,1936-02-11,"British Columbia-Forests, Lands, Natural Resources"
JBWOT,Port McNeill,Undetermined,,Town,Populated Place,TOWN,13772f02c6ce11d892e2080020a0f4c9,50.589444,-127.083611,Rupert Land District,British Columbia,7500000,1984-11-29,"British Columbia-Forests, Lands, Natural Resources"
JBCVD,Port Moody,Undetermined,,City,Populated Place,CITY,0cfa8e33849c20c3c9ae6c9befadd241,49.282222,-122.829444,New Westminster Land District,British Columbia,1000000,1948-02-06,"British Columbia-Forests, Lands, Natural Resources"
JCVCI,Powell River,Undetermined,,City,Populated Place,CITY,f9ce4610c6cd11d892e2080020a0f4c9,49.835556,-124.524444,New Westminster Land District,British Columbia,7500000,2005-11-10,"British Columbia-Forests, Lands, Natural Resources"
JBLVS,Prince George,Undetermined,,City,Populated Place,CITY,0cfb55be849c20c3cfd0aafa5573bf6c,53.913056,-122.745278,Cariboo Land District,British Columbia,15000000,1958-10-02,"British Columbia-Forests, Lands, Natural Resources"
JCNWW,Prince Rupert,Undetermined,,City,Populated Place,CITY,fa3ad745d05411d892e2080020a0f4c9,54.312778,-130.325278,Range 5 Coast Land District,British Columbia,15000000,1954-07-08,"British Columbia-Forests, Lands, Natural Resources"
JCCXO,Princeton,Undetermined,,Town,Populated Place,TOWN,7728f506d05511d892e2080020a0f4c9,49.460278,-120.507778,Yale Division Yale Land District,British Columbia,7500000,1994-07-13,"British Columbia-Forests, Lands, Natural Resources"
JBNOZ,Qualicum Beach,Undetermined,,Town,Populated Place,TOWN,bff22f9bd05411d892e2080020a0f4c9,49.348056,-124.443889,Newcastle Land District,British Columbia,1000000,1994-07-13,"British Columbia-Forests, Lands, Natural Resources"
JBNTS,Quesnel,Undetermined,,City,Populated Place,CITY,102a4da5c6ce11d892e2080020a0f4c9,52.979722,-122.493611,Cariboo Land District,British Columbia,7500000,1981-05-21,"British Columbia-Forests, Lands, Natural Resources"
JBHTI,Revelstoke,Undetermined,,City,Populated Place,CITY,0cfb11f6849c20c3402f97ca86cfa79d,50.998889,-118.195833,Kootenay Land District,British Columbia,7500000,1924-03-31,"British Columbia-Forests, Lands, Natural Resources"
JBJFI,Richmond,Undetermined,,City,Populated Place,CITY,bc5903fad05411d892e2080020a0f4c9,49.163333,-123.163333,New Westminster Land District,British Columbia,1000000,1991-11-08,"British Columbia-Forests, Lands, Natural Resources"
JBMYM,Rossland,Undetermined,,City,Populated Place,CITY,0c9eab8a849c20c37ce376ae387a882a,49.076944,-117.802222,Kootenay Land District,British Columbia,1000000,1950-06-02,"British Columbia-Forests, Lands, Natural Resources"
JCJTJ,Salmon Arm,Undetermined,,City,Populated Place,CITY,d483891dd05411d892e2080020a0f4c9,50.701389,-119.278056,Kamloops Division Yale Land District,British Columbia,50000,2005-05-31,"British Columbia-Forests, Lands, Natural Resources"
JBWFW,Sidney,Undetermined,,Town,Populated Place,TOWN,13580e3fc6ce11d892e2080020a0f4c9,48.650556,-123.398333,North Saanich Land District,British Columbia,7500000,1977-12-31,"British Columbia-Forests, Lands, Natural Resources"
JBMQO,Smithers,Undetermined,,Town,Populated Place,TOWN,bed749a2d05411d892e2080020a0f4c9,54.779167,-127.176111,Range 5 Coast Land District,British Columbia,7500000,1994-07-13,"British Columbia-Forests, Lands, Natural Resources"
JAZBU,Surrey,Undetermined,,City,Populated Place,CITY,76f031c1d05511d892e2080020a0f4c9,49.111667,-122.8275,New Westminster Land District,British Columbia,1000000,1993-11-30,"British Columbia-Forests, Lands, Natural Resources"
JBXCK,Terrace,Undetermined,,City,Populated Place,CITY,13a2abd6c6ce11d892e2080020a0f4c9,54.516389,-128.599722,Range 5 Coast Land District,British Columbia,7500000,1960-01-01,"British Columbia-Forests, Lands, Natural Resources"
JBNDK,Trail,Undetermined,,City,Populated Place,CITY,0cfb650e849c20c396d2ed6a29b36a18,49.094444,-117.709167,Kootenay Land District,British Columbia,7500000,1951-12-06,"British Columbia-Forests, Lands, Natural Resources"
JBRIK,Vancouver,Undetermined,,City,Populated Place,CITY,0ca0fef1849c20c3313df3807fa729b2,49.261111,-123.113889,New Westminster Land District,British Columbia,15000000,1937-12-07,"British Columbia-Forests, Lands, Natural Resources"
JBOAP,Vernon,Undetermined,,City,Populated Place,CITY,5099e57ad05511d892e2080020a0f4c9,50.266667,-119.271667,Osoyoos Division Yale Land District,British Columbia,7500000,1994-07-13,"British Columbia-Forests, Lands, Natural Resources"
JBOBQ,Victoria,Undetermined,,City,Populated Place,CITY,0cfb728f849c20c36f8ebf28d7e4d1d4,48.428333,-123.364722,Victoria Land District,British Columbia,30000000,1934-05-01,"British Columbia-Forests, Lands, Natural Resources"
JBPTY,View Royal,Undetermined,,Town,Populated Place,TOWN,c1d56eb6d05411d892e2080020a0f4c9,48.451944,-123.434167,Esquimalt Land District,British Columbia,250000,1989-06-13,"British Columbia-Forests, Lands, Natural Resources"
JCSNX,White Rock,Undetermined,,City,Populated Place,CITY,19f9711ec6ce11d892e2080020a0f4c9,49.023611,-122.798333,New Westminster Land District,British Columbia,1000000,1957-04-15,"British Columbia-Forests, Lands, Natural Resources"
JBTMB,Williams Lake,Undetermined,,City,Populated Place,CITY,771d3535d05511d892e2080020a0f4c9,52.129167,-122.14,Cariboo Land District,British Columbia,15000000,1994-07-13,"British Columbia-Forests, Lands, Natural Resources"
GAAPV,Altona,Undetermined,,Town,Populated Place,TOWN,24e8ee9cbedb11d892e2080020a0f4c9,49.104722,-97.558889,"5,8-2-1-W",Manitoba,7500000,1956-12-31,Manitoba-Sustainable Development
GAAYG,Arborg,Undetermined,,Town,Populated Place,TOWN,37aefebcbedb11d892e2080020a0f4c9,50.907222,-97.216944,23-22-2-E,Manitoba,7500000,1997-12-24,Manitoba-Sustainable Development
GABYK,Beausejour,Undetermined,,Town,Populated Place,TOWN,8e5fae8fbedb11d892e2080020a0f4c9,50.062222,-96.516111,"12,13-7-E",Manitoba,7500000,1939-12-12,Manitoba-Sustainable Development
GACVX,Birtle,Undetermined,,Town,Populated Place,TOWN,df112f19bedb11d892e2080020a0f4c9,50.4225,-101.0475,6-17-26-W,Manitoba,1000000,1952-08-14,Manitoba-Sustainable Development
GADFN,Boissevain,Undetermined,,Town,Populated Place,TOWN,edbc85dabedb11d892e2080020a0f4c9,49.230556,-100.055,24-3-20-W,Manitoba,7500000,1955-01-20,Manitoba-Sustainable Development
GADMZ,Brandon,Undetermined,,City,Populated Place,CITY,93426abbbede11d892e2080020a0f4c9,49.846944,-99.952222,,Manitoba,15000000,1946-12-03,Manitoba-Sustainable Development
GAEIX,Carberry,Undetermined,,Town,Populated Place,TOWN,d1fdfc08bede11d892e2080020a0f4c9,49.868889,-99.359444,30-10-14-W,Manitoba,1000000,1946-12-03,Manitoba-Sustainable Development
GAEKX,Carman,Undetermined,,Town,Populated Place,TOWN,e0bc3f17bede11d892e2080020a0f4c9,49.499167,-98.000833,"6-4,5-W",Manitoba,7500000,1952-05-01,Manitoba-Sustainable Development
GAFAB,Churchill,Undetermined,,Town,Populated Place,TOWN,fd174f4cbede11d892e2080020a0f4c9,58.780833,-94.186944,,Manitoba,15000000,1994-03-31,Manitoba-Sustainable Development
GAGDE,Dauphin,Undetermined,,City,Populated Place,CITY,e9801765bedf11d892e2080020a0f4c9,51.149444,-100.04944,10-25-19W,Manitoba,15000000,1998-11-30,Manitoba-Sustainable Development
GAGKB,Deloraine,Undetermined,,Town,Populated Place,TOWN,f4051dcdbedf11d892e2080020a0f4c9,49.190833,-100.49389,3-3-23-W,Manitoba,1000000,1955-01-20,Manitoba-Sustainable Development
GAHTD,Emerson,Undetermined,,Town,Populated Place,TOWN,00cddcf4bee111d892e2080020a0f4c9,49.006944,-97.214722,,Manitoba,7500000,1952-05-01,Manitoba-Sustainable Development
GAHUI,Erickson,Undetermined,,Town,Populated Place,TOWN,07336fcbbee111d892e2080020a0f4c9,50.498056,-99.911389,32-17-18-W,Manitoba,1000000,1997-12-24,Manitoba-Sustainable Development
GAILW,Flin Flon,Undetermined,,City,Populated Place,CITY,d3f41f25ba2f11d892e2080020a0f4c9,54.768056,-101.8641699,,Manitoba,15000000,1948-01-06,Manitoba-Sustainable Development
GBSLM,Gilbert Plains,Undetermined,,Town,Populated Place,TOWN,2ea5a240bee311d892e2080020a0f4c9,51.149722,-100.487778,9-25-22-W,Manitoba,1000000,2011-05-27,Manitoba-Sustainable Development
GAJER,Gillam,Undetermined,,Town,Populated Place,TOWN,312e9717bee311d892e2080020a0f4c9,56.347222,-94.707778,,Manitoba,7500000,1994-03-31,Manitoba-Sustainable Development
GAJFM,Gimli,Undetermined,,Town,Populated Place,TOWN,33e811d7bee311d892e2080020a0f4c9,50.633611,-96.99,,Manitoba,7500000,1933-12-31,Manitoba-Sustainable Development
GAJGA,Gladstone,Undetermined,,Town,Populated Place,TOWN,361f8b54bee311d892e2080020a0f4c9,50.225833,-98.95,14-11-W,Manitoba,1000000,1947-11-04,Manitoba-Sustainable Development
GAJQX,Grand Rapids,Undetermined,,Town,Populated Place,TOWN,5dd20c8fbee311d892e2080020a0f4c9,53.178333,-99.264722,,Manitoba,7500000,1994-03-31,Manitoba-Sustainable Development
GAJRE,Grandview,Undetermined,,Town,Populated Place,TOWN,5e33b493bee311d892e2080020a0f4c9,51.174167,-100.69778,24-25-24-W,Manitoba,1000000,1952-04-03,Manitoba-Sustainable Development
GAJWV,Gretna,Undetermined,,Town,Populated Place,TOWN,6d674ee6bee311d892e2080020a0f4c9,49.007778,-97.561667,5-1-1-W,Manitoba,1000000,1998-11-30,Manitoba-Sustainable Development
GBSLL,Hamiota,Undetermined,,Town,Populated Place,TOWN,7d8bb11bbee311d892e2080020a0f4c9,50.180555,-100.596111,8-14-23-W,Manitoba,1000000,2011-05-27,Manitoba-Sustainable Development
GAKKP,Hartney,Undetermined,,Town,Populated Place,TOWN,a183c30abee311d892e2080020a0f4c9,49.480833,-100.5225,16-6-23-W,Manitoba,1000000,1955-01-20,Manitoba-Sustainable Development
GANKU,Killarney,Undetermined,,Town,Populated Place,TOWN,0d277f80bee511d892e2080020a0f4c9,49.183333,-99.662778,,Manitoba,7500000,1946-12-03,Manitoba-Sustainable Development
GANZL,Lac du Bonnet,Undetermined,,Town,Populated Place,TOWN,2e3fa2bcbee511d892e2080020a0f4c9,50.253611,-96.060556,17-15-11-E,Manitoba,1000000,1997-12-24,Manitoba-Sustainable Development
GAOIT,Leaf Rapids,Undetermined,,Town,Populated Place,TOWN,3c01aadabee511d892e2080020a0f4c9,56.4619444,-100.0105556,"85,86,87-13,14,15,16,17-W",Manitoba,7500000,2015-11-09,Manitoba-Sustainable Development
GAPQM,Lynn Lake,Undetermined,,Town,Populated Place,TOWN,1452b64bbee611d892e2080020a0f4c9,56.825,-101.075,,Manitoba,250000,1997-12-24,Manitoba-Sustainable Development
GBSLI,MacGregor,Undetermined,,Town,Populated Place,TOWN,1a0a07c9bee611d892e2080020a0f4c9,49.966111,-98.778611,33-11-10-W,Manitoba,1000000,2011-05-27,Manitoba-Sustainable Development
GBSLG,Manitou,Undetermined,,Town,Populated Place,TOWN,5874f99cbeec11d892e2080020a0f4c9,49.240555,-98.536667,30-3-8-W,Manitoba,1000000,2011-05-27,Manitoba-Sustainable Development
GAQZN,Melita,Undetermined,,Town,Populated Place,TOWN,fe20c820beec11d892e2080020a0f4c9,49.268056,-100.99583,1-4-27-W,Manitoba,7500000,1955-01-20,Manitoba-Sustainable Development
GARJY,Minitonas,Undetermined,,Town,Populated Place,TOWN,279f2fb3beed11d892e2080020a0f4c9,52.086111,-101.03917,13-36-26-W,Manitoba,1000000,1998-12-15,Manitoba-Sustainable Development
GARKU,Minnedosa,Uncoded languages,,Town,Populated Place,TOWN,2a23b7c5beed11d892e2080020a0f4c9,50.245278,-99.842778,15-18-W,Manitoba,7500000,1947-11-04,Manitoba-Sustainable Development
GASBB,Morden,Undetermined,,Town,Populated Place,TOWN,672e3e69beed11d892e2080020a0f4c9,49.191944,-98.100556,,Manitoba,7500000,1946-12-03,Manitoba-Sustainable Development
GASCI,Morris,Undetermined,,Town,Populated Place,TOWN,69f80cdebeed11d892e2080020a0f4c9,49.355,-97.365,,Manitoba,1000000,1952-10-02,Manitoba-Sustainable Development
GASYI,Neepawa,Uncoded languages,,Town,Populated Place,TOWN,c2306ec7beed11d892e2080020a0f4c9,50.228889,-99.465556,33-14-15-W,Manitoba,7500000,1947-11-04,Manitoba-Sustainable Development
GATGY,Niverville,Undetermined,,Town,Populated Place,TOWN,de446389beed11d892e2080020a0f4c9,49.605556,-97.041667,30-7-4E,Manitoba,1000000,1993-06-14,Manitoba-Sustainable Development
GATVL,Oak Lake,Undetermined,,Town,Populated Place,TOWN,f84508f4beed11d892e2080020a0f4c9,49.766389,-100.62806,23-9-24-W,Manitoba,1000000,1955-01-20,Manitoba-Sustainable Development
GAVPO,Pilot Mound,Undetermined,,Town,Populated Place,TOWN,c1a59de1beee11d892e2080020a0f4c9,49.201389,-98.893889,9-3-11-W,Manitoba,1000000,1998-12-15,Manitoba-Sustainable Development
GAVXA,Plum Coulee,Undetermined,,Town,Populated Place,TOWN,cc1806b4beee11d892e2080020a0f4c9,49.191111,-97.760556,"2,11-3-3-W",Manitoba,1000000,2001-05-04,Manitoba-Sustainable Development
GAWDD,Portage la Prairie,Undetermined,,City,Populated Place,CITY,d55aef34beee11d892e2080020a0f4c9,49.972778,-98.291944,"11,12-6,7-W",Manitoba,7500000,1933-12-31,Manitoba-Sustainable Development
GBSKK,Powerview-Pine Falls,Undetermined,,Town,Populated Place,TOWN,832571e70a001204253c2a951ff2446f,50.567222,-96.196944,,Manitoba,7500000,2008-07-10,Manitoba-Sustainable Development
GAWOZ,Rapid City,Undetermined,,Town,Populated Place,TOWN,e9098abdbeee11d892e2080020a0f4c9,50.120833,-100.03583,"20,29-13-19-W",Manitoba,1000000,1933-12-31,Manitoba-Sustainable Development
GAXDB,Rivers,Undetermined,,Town,Populated Place,TOWN,a19139f3beef11d892e2080020a0f4c9,50.030833,-100.23944,23-12-21-W,Manitoba,1000000,1952-08-14,Manitoba-Sustainable Development
GAXGH,Roblin,Undetermined,,Town,Populated Place,TOWN,ac456684beef11d892e2080020a0f4c9,51.23,-101.35556,26-28-W,Manitoba,7500000,1949-05-05,Manitoba-Sustainable Development
GAXOC,Rossburn,Undetermined,,Town,Populated Place,TOWN,7ab508dbbef111d892e2080020a0f4c9,50.669167,-100.81111,36-19-25-W,Manitoba,1000000,1997-12-24,Manitoba-Sustainable Development
GAXTQ,Russell,Undetermined,,Town,Populated Place,TOWN,88509e05bef111d892e2080020a0f4c9,50.780833,-101.28389,3-21-28-W,Manitoba,7500000,1933-12-31,Manitoba-Sustainable Development
GAYRY,Selkirk,Undetermined,,City,Populated Place,CITY,d1215dc9bef111d892e2080020a0f4c9,50.143611,-96.883889,St. Clements,Manitoba,7500000,1998-11-30,Manitoba-Sustainable Development
GAZBY,Shoal Lake,Undetermined,,Town,Populated Place,TOWN,f8b09f7cbef111d892e2080020a0f4c9,50.437778,-100.59111,,Manitoba,1000000,1997-12-24,Manitoba-Sustainable Development
GAZRZ,Snow Lake,Undetermined,,Town,Populated Place,TOWN,37c43c93bef211d892e2080020a0f4c9,54.878889,-100.03667,,Manitoba,7500000,1976-09-21,Manitoba-Sustainable Development
GAZUK,Souris,Undetermined,,Town,Populated Place,TOWN,3f836c0dbef211d892e2080020a0f4c9,49.617222,-100.26028,"7,8-21-W",Manitoba,7500000,1955-01-20,Manitoba-Sustainable Development
GAXXF,Ste. Anne,Undetermined,,Town,Populated Place,TOWN,912e8403bef111d892e2080020a0f4c9,49.6697219,-96.6494439,,Manitoba,1000000,1997-12-24,Manitoba-Sustainable Development
GBSLN,Ste. Rose du Lac,Undetermined,,Town,Populated Place,TOWN,9163289abef111d892e2080020a0f4c9,51.059444,-99.523333,24-15-W,Manitoba,1000000,2011-05-27,Manitoba-Sustainable Development
GBAML,Steinbach,Undetermined,,City,Populated Place,CITY,61e4d82dbef211d892e2080020a0f4c9,49.525833,-96.683889,,Manitoba,7500000,1997-12-24,Manitoba-Sustainable Development
GBAQH,Stonewall,Undetermined,,Town,Populated Place,TOWN,6762550dbef211d892e2080020a0f4c9,50.134444,-97.326111,25-13-1-E,Manitoba,1000000,1933-12-31,Manitoba-Sustainable Development
GBBDR,Swan River,Undetermined,,Town,Populated Place,TOWN,c1257505bef211d892e2080020a0f4c9,52.105833,-101.26667,,Manitoba,7500000,1940-05-21,Manitoba-Sustainable Development
GBBLY,Teulon,Undetermined,,Town,Populated Place,TOWN,d4c67acabef211d892e2080020a0f4c9,50.385833,-97.261111,21-16-2-E,Manitoba,1000000,1997-12-24,Manitoba-Sustainable Development
GBBOH,The Pas,Cree,,Town,Populated Place,TOWN,d6d50f89bef211d892e2080020a0f4c9,53.825,-101.25333,,Manitoba,7500000,1950-04-06,Manitoba-Sustainable Development
GBBRP,Thompson,Undetermined,,City,Populated Place,CITY,da3fd8f8bef211d892e2080020a0f4c9,55.743333,-97.855278,,Manitoba,15000000,1957-10-16,Manitoba-Sustainable Development
GBSLH,Treherne,Undetermined,,Town,Populated Place,TOWN,ead96b34bef211d892e2080020a0f4c9,49.629444,-98.697778,1-8-10-W,Manitoba,1000000,2011-05-27,Manitoba-Sustainable Development
GBCSD,Virden,Undetermined,,Town,Populated Place,TOWN,6514ed24bef311d892e2080020a0f4c9,49.850833,-100.93167,22-10-26-W,Manitoba,7500000,1955-01-20,Manitoba-Sustainable Development
GBSLJ,Winkler,Undetermined,,City,Populated Place,CITY,c4ade30dbef311d892e2080020a0f4c9,49.181667,-97.940278,4-3-4-W,Manitoba,7500000,2011-05-27,Manitoba-Sustainable Development
GBEIN,Winnipeg,Cree,,City,Populated Place,CITY,c5868fcfbef311d892e2080020a0f4c9,49.884444,-97.146389,,Manitoba,30000000,1972-01-01,Manitoba-Sustainable Development
GBEIP,Winnipeg Beach,Undetermined,,Town,Populated Place,TOWN,c58e09e0bef311d892e2080020a0f4c9,50.499722,-96.974722,"33,34-17-4-E",Manitoba,1000000,1949-11-03,Manitoba-Sustainable Development
DAFQX,Bathurst,Undetermined,,City,Populated Place,CITY,0c7a99c7849c20c3230224d43434c8cc,47.626111,-65.628333,Gloucester,New Brunswick,15000000,1949-07-07,"New Brunswick-Tourism, Culture and Heritage"
DAHAY,Beresford,Undetermined,,Town,Populated Place,TOWN,9fd4acf5c6cd11d892e2080020a0f4c9,47.711011,-65.705958,Gloucester,New Brunswick,1000000,1984-07-01,"New Brunswick-Tourism, Culture and Heritage"
DBBXR,Bouctouche,Undetermined,,Town,Populated Place,TOWN,bc84bad9c6cd11d892e2080020a0f4c9,46.468333,-64.740278,Kent,New Brunswick,7500000,1985-06-24,"New Brunswick-Tourism, Culture and Heritage"
DAHEI,Campbellton,Undetermined,,City,Populated Place,CITY,8f77e91ad05411d892e2080020a0f4c9,47.999336,-66.683511,Restigouche,New Brunswick,7500000,1949-07-07,"New Brunswick-Tourism, Culture and Heritage"
DAZVA,Caraquet,Undetermined,,Town,Populated Place,TOWN,0c820eae849c20c3ee7d302365337ee1,47.765556,-64.95,Gloucester,New Brunswick,7500000,2009-07-03,"New Brunswick-Tourism, Culture and Heritage"
DAAOF,Dalhousie,Undetermined,,Town,Populated Place,TOWN,0c790441849c20c372a1125b476798c8,48.048611,-66.390278,Restigouche,New Brunswick,7500000,1955-09-01,"New Brunswick-Tourism, Culture and Heritage"
DBAKL,Dieppe,Undetermined,,City,Populated Place,CITY,e69500bfd05211d892e2080020a0f4c9,46.078333,-64.688611,Westmorland,New Brunswick,1000000,2002-01-01,"New Brunswick-Tourism, Culture and Heritage"
DALZZ,Edmundston,Undetermined,,City,Populated Place,CITY,7af7de05c6be11d892e2080020a0f4c9,47.377222,-68.294444,Madawaska,New Brunswick,7500000,1998-01-01,"New Brunswick-Tourism, Culture and Heritage"
DBESQ,Florenceville-Bristol,Undetermined,,Town,Populated Place,TOWN,c6d56fcf0a00120460b1fa63a1aa8010,46.452132,-67.606442,,New Brunswick,1000000,2008-07-01,"New Brunswick-Tourism, Culture and Heritage"
DAFMJ,Fredericton,Undetermined,,City,Populated Place,CITY,214dbdded05511d892e2080020a0f4c9,45.945278,-66.666667,York,New Brunswick,30000000,1994-02-22,"New Brunswick-Tourism, Culture and Heritage"
DBEFJ,Grand Bay-Westfield,Undetermined,,Town,Populated Place,TOWN,e45f5cded05211d892e2080020a0f4c9,45.340556,-66.253889,Kings,New Brunswick,1000000,1998-01-01,"New Brunswick-Tourism, Culture and Heritage"
DAICU,Grand Falls,Undetermined,,Town,Populated Place,TOWN,7b80a33bba1f11d892e2080020a0f4c9,47.0525,-67.735,Victoria,New Brunswick,7500000,2009-07-27,"New Brunswick-Tourism, Culture and Heritage"
DAQOW,Grand-Sault,Undetermined,,Town,Populated Place,TOWN,7b80a33bba1f11d892e2080020a0f4c9,47.0525,-67.735,Victoria,New Brunswick,7500000,2009-07-27,"New Brunswick-Tourism, Culture and Heritage"
DAJFU,Hampton,Undetermined,,Town,Populated Place,TOWN,a36fad5ec6cd11d892e2080020a0f4c9,45.528611,-65.854722,Kings,New Brunswick,7500000,1991-11-09,"New Brunswick-Tourism, Culture and Heritage"
DAJRT,Hartland,Undetermined,,Town,Populated Place,TOWN,0c7c48cb849c20c39cd800e6da8d8c49,46.298611,-67.5,Carleton,New Brunswick,1000000,1949-09-01,"New Brunswick-Tourism, Culture and Heritage"
DAUFI,Lamèque,Undetermined,,Town,Populated Place,TOWN,b2c54ec7c6cd11d892e2080020a0f4c9,47.813056,-64.623611,Gloucester,New Brunswick,1000000,1982-09-03,"New Brunswick-Tourism, Culture and Heritage"
DBEDJ,Miramichi,Undetermined,,City,Populated Place,CITY,0cf6fb70849c20c387e2413b417ef6bc,47.004167,-65.466667,Northumberland,New Brunswick,7500000,1995-01-01,"New Brunswick-Tourism, Culture and Heritage"
DADHJ,Moncton,Undetermined,,City,Populated Place,CITY,0cf6ee7a849c20c3bd682e655bb2ba0c,46.099479,-64.799802,Westmorland,New Brunswick,15000000,1890-04-23,"New Brunswick-Tourism, Culture and Heritage"
DABIY,Nackawic,Undetermined,,Town,Populated Place,TOWN,95d44041c6cd11d892e2080020a0f4c9,45.9933,-67.22,York,New Brunswick,1000000,1976-04-07,"New Brunswick-Tourism, Culture and Heritage"
DATWJ,Oromocto,Undetermined,,Town,Populated Place,TOWN,0c80330d849c20c3244a2101f01ef23f,45.847602,-66.470851,Sunbury,New Brunswick,7500000,1956-01-01,"New Brunswick-Tourism, Culture and Heritage"
DAVTW,Quispamsis,Malecite-Passamaquoddy,,Town,Populated Place,TOWN,7b021736c6be11d892e2080020a0f4c9,45.445736,-65.928736,Kings,New Brunswick,1000000,1998-01-01,"New Brunswick-Tourism, Culture and Heritage"
DAXCB,Richibucto,Undetermined,,Town,Populated Place,TOWN,5e8c11f3c6ce11d892e2080020a0f4c9,46.681071,-64.868952,Kent,New Brunswick,1000000,1985-07-01,"New Brunswick-Tourism, Culture and Heritage"
DBBTG,Riverview,Undetermined,,Town,Populated Place,TOWN,9c74a50dd05411d892e2080020a0f4c9,46.054444,-64.817222,Albert,New Brunswick,1000000,1994-02-22,"New Brunswick-Tourism, Culture and Heritage"
DACOY,Rothesay,Undetermined,,Town,Populated Place,TOWN,49ba46fcc6be11d892e2080020a0f4c9,45.380278,-65.968611,Kings,New Brunswick,1000000,1998-01-01,"New Brunswick-Tourism, Culture and Heritage"
DAEAM,Sackville,Undetermined,,Town,Populated Place,TOWN,0c7a1173849c20c378993316c3215168,45.918611,-64.385833,Westmorland,New Brunswick,7500000,1937-11-02,"New Brunswick-Tourism, Culture and Heritage"
DAEBC,Saint Andrews,Undetermined,,Town,Populated Place,TOWN,0c7a13ad849c20c3067b1c808b2465b7,45.079907,-67.058373,Charlotte,New Brunswick,1000000,1936-11-10,"New Brunswick-Tourism, Culture and Heritage"
DAEGW,Saint John,Undetermined,,City,Populated Place,CITY,93f89999d05511d892e2080020a0f4c9,45.259167,-66.038889,Saint John,New Brunswick,15000000,1981-04-03,"New Brunswick-Tourism, Culture and Heritage"
DBDVO,Saint-Léonard,Undetermined,,Town,Populated Place,TOWN,8a7d0979d05411d892e2080020a0f4c9,47.1625,-67.925,,New Brunswick,1000000,2009-07-27,"New Brunswick-Tourism, Culture and Heritage"
DAEGG,Saint-Quentin,Undetermined,,Town,Populated Place,TOWN,9bc5db11c6cd11d892e2080020a0f4c9,47.513548,-67.392285,Restigouche,New Brunswick,7500000,1991-11-09,"New Brunswick-Tourism, Culture and Heritage"
DACUC,Shediac,"Micmac, Mi'kmaq",,Town,Populated Place,TOWN,217b0f72d05511d892e2080020a0f4c9,46.221272,-64.539767,Westmorland,New Brunswick,7500000,1991-02-22,"New Brunswick-Tourism, Culture and Heritage"
DAGLX,Shippagan,"Micmac, Mi'kmaq",,Town,Populated Place,TOWN,1056830aca0211d892e2080020a0f4c9,47.735556,-64.723611,Gloucester,New Brunswick,7500000,2009-07-27,"New Brunswick-Tourism, Culture and Heritage"
DAEDP,St. George,Undetermined,,Town,Populated Place,TOWN,0c7a15ea849c20c3bdef246bf504e09e,45.132014,-66.820232,Charlotte,New Brunswick,1000000,1952-06-06,"New Brunswick-Tourism, Culture and Heritage"
DAZBZ,St. Stephen,Undetermined,,Town,Populated Place,TOWN,0c81edcb849c20c3803b9f58f7ebdfcc,45.180278,-67.296389,Charlotte,New Brunswick,7500000,1936-11-10,"New Brunswick-Tourism, Culture and Heritage"
DASFF,Sussex,Undetermined,,Town,Populated Place,TOWN,0c7f81dd849c20c31bc9214f08342ca5,45.723534,-65.510394,Kings,New Brunswick,7500000,1945-01-24,"New Brunswick-Tourism, Culture and Heritage"
DBDVR,Tracadie-Sheila,Undetermined,,Town,Populated Place,TOWN,95701e8ad05511d892e2080020a0f4c9,47.514444,-64.918056,Gloucester,New Brunswick,7500000,1994-07-06,"New Brunswick-Tourism, Culture and Heritage"
DAWNW,Woodstock,Undetermined,,Town,Populated Place,TOWN,0c812404849c20c359b00d6f9e1b3e18,46.152222,-67.598333,Carleton,New Brunswick,7500000,1949-09-01,"New Brunswick-Tourism, Culture and Heritage"
ABZJA,Admirals Beach,Undetermined,,Town,Populated Place,TOWN,395abc89c6ce11d892e2080020a0f4c9,47.0171497,-53.5989861,,Newfoundland and Labrador,1000000,1997-01-01,Newfoundland Labrador-Fisheries and Land Resources
AAADK,Anchor Point,Undetermined,,Town,Populated Place,TOWN,fc6f56f9c6cd11d892e2080020a0f4c9,51.2389361,-56.7885527,,Newfoundland and Labrador,250000,1997-01-01,Newfoundland Labrador-Fisheries and Land Resources
ABEWP,Appleton,Undetermined,,Town,Populated Place,TOWN,6dba8f41d05511d892e2080020a0f4c9,48.9817361,-54.8572361,,Newfoundland and Labrador,250000,1996-03-29,Newfoundland Labrador-Fisheries and Land Resources
AAAFY,Aquaforte,Undetermined,,Town,Populated Place,TOWN,fc64a898c6cd11d892e2080020a0f4c9,47.0080555,-52.9563889,,Newfoundland and Labrador,250000,1997-01-01,Newfoundland Labrador-Fisheries and Land Resources
ABFBL,Arnold's Cove,Undetermined,,Town,Populated Place,TOWN,20f12547c6be11d892e2080020a0f4c9,47.7689194,-53.9917694,Bellevue,Newfoundland and Labrador,1000000,1996-03-29,Newfoundland Labrador-Fisheries and Land Resources
ABFBK,Avondale,Undetermined,,Town,Populated Place,TOWN,edca98cad05311d892e2080020a0f4c9,47.3991028,-53.2264333,,Newfoundland and Labrador,250000,1996-03-29,Newfoundland Labrador-Fisheries and Land Resources
AAAMM,Badger,Undetermined,,Town,Populated Place,TOWN,09d326dfd05511d892e2080020a0f4c9,48.9788806,-56.0416916,,Newfoundland and Labrador,1000000,1996-03-29,Newfoundland Labrador-Fisheries and Land Resources
ABAUI,Baie Verte,Undetermined,,Town,Populated Place,TOWN,d6c1614cd05311d892e2080020a0f4c9,49.9087083,-56.1946584,,Newfoundland and Labrador,7500000,1996-03-29,Newfoundland Labrador-Fisheries and Land Resources
ABFBG,Baine Harbour,Undetermined,,Town,Populated Place,TOWN,3979b63cc6ce11d892e2080020a0f4c9,47.3659444,-54.8972055,,Newfoundland and Labrador,250000,1997-01-01,Newfoundland Labrador-Fisheries and Land Resources
AAAYB,Bauline,Undetermined,,Town,Populated Place,TOWN,df83a882d05311d892e2080020a0f4c9,47.7008305,-52.8195695,,Newfoundland and Labrador,250000,1996-03-29,Newfoundland Labrador-Fisheries and Land Resources
AAAYG,Bay Bulls,Undetermined,,Town,Populated Place,TOWN,6c426e11d05511d892e2080020a0f4c9,47.3261583,-52.793875,Ferryland,Newfoundland and Labrador,1000000,1996-03-29,Newfoundland Labrador-Fisheries and Land Resources
ABFBQ,Bay L'Argent,Undetermined,,Town,Populated Place,TOWN,edd56e3bd05311d892e2080020a0f4c9,47.542664,-54.886061,,Newfoundland and Labrador,1000000,1996-03-29,Newfoundland Labrador-Fisheries and Land Resources
ABAUE,Bay Roberts,Undetermined,,Town,Populated Place,TOWN,6ce8992fd05511d892e2080020a0f4c9,47.5827278,-53.2932639,Harbour Grace,Newfoundland and Labrador,7500000,1996-03-29,Newfoundland Labrador-Fisheries and Land Resources
ABAUF,Bay de Verde,Undetermined,,Town,Populated Place,TOWN,6cf3bcc0d05511d892e2080020a0f4c9,48.1011611,-52.8895167,,Newfoundland and Labrador,1000000,1996-03-29,Newfoundland Labrador-Fisheries and Land Resources
ABSWP,Baytona,Undetermined,,Town,Populated Place,TOWN,2d91ebb9c6ce11d892e2080020a0f4c9,49.3305861,-54.7841194,Lewisporte,Newfoundland and Labrador,250000,1997-01-01,Newfoundland Labrador-Fisheries and Land Resources
ABEXU,Beachside,Undetermined,,Town,Populated Place,TOWN,39843d8dc6ce11d892e2080020a0f4c9,49.6428889,-55.8991139,Green Bay,Newfoundland and Labrador,250000,1997-01-01,Newfoundland Labrador-Fisheries and Land Resources
ABFBY,Bellburns,Undetermined,,Town,Populated Place,TOWN,398e4faec6ce11d892e2080020a0f4c9,50.3279667,-57.5284278,,Newfoundland and Labrador,250000,1997-01-01,Newfoundland Labrador-Fisheries and Land Resources
ABAUM,Belleoram,Undetermined,,Town,Populated Place,TOWN,80955ef7d05511d892e2080020a0f4c9,47.524733,-55.416094,,Newfoundland and Labrador,1000000,1996-03-29,Newfoundland Labrador-Fisheries and Land Resources
AABTS,Birchy Bay,Undetermined,,Town,Populated Place,TOWN,dfc879b8d05311d892e2080020a0f4c9,49.3215389,-54.7361083,,Newfoundland and Labrador,1000000,1996-03-29,Newfoundland Labrador-Fisheries and Land Resources
AABUX,Bird Cove,Undetermined,,Town,Populated Place,TOWN,39a80f5bc6cd11d892e2080020a0f4c9,51.0460695,-56.9334055,,Newfoundland and Labrador,250000,1997-01-01,Newfoundland Labrador-Fisheries and Land Resources
AAUZA,Bishop's Cove,Undetermined,,Town,Populated Place,TOWN,2eb44bc5c6ce11d892e2080020a0f4c9,47.6367556,-53.2327389,Harbour Grace,Newfoundland and Labrador,50000,1997-01-01,Newfoundland Labrador-Fisheries and Land Resources
AABVP,Bishop's Falls,Undetermined,,Town,Populated Place,TOWN,dfdf0efad05311d892e2080020a0f4c9,49.0209528,-55.4898944,Exploits,Newfoundland and Labrador,7500000,1996-04-12,Newfoundland Labrador-Fisheries and Land Resources
AACKH,Bonavista,Undetermined,,Town,Populated Place,TOWN,6c58b533d05511d892e2080020a0f4c9,48.6317917,-53.1041333,Bonavista South,Newfoundland and Labrador,7500000,1996-03-29,Newfoundland Labrador-Fisheries and Land Resources
AACMK,Botwood,Undetermined,,Town,Populated Place,TOWN,e04ec0c4d05311d892e2080020a0f4c9,49.1356472,-55.3731528,,Newfoundland and Labrador,1000000,1996-03-29,Newfoundland Labrador-Fisheries and Land Resources
AACOM,Branch,Undetermined,,Town,Populated Place,TOWN,3a35f689c6cd11d892e2080020a0f4c9,46.8822222,-53.9644445,St. Mary's-The Capes,Newfoundland and Labrador,1000000,1997-01-01,Newfoundland Labrador-Fisheries and Land Resources
AACRQ,Brent's Cove,Undetermined,,Town,Populated Place,TOWN,3a418f4ac6cd11d892e2080020a0f4c9,49.9369444,-55.7069444,,Newfoundland and Labrador,250000,1997-01-01,Newfoundland Labrador-Fisheries and Land Resources
AACSR,Brighton,Undetermined,,Town,Populated Place,TOWN,2a1d3804c6ce11d892e2080020a0f4c9,49.5400695,-55.6432555,Green Bay,Newfoundland and Labrador,250000,1997-01-01,Newfoundland Labrador-Fisheries and Land Resources
ACGFS,Brigus,Undetermined,,Town,Populated Place,TOWN,0e0d7492d05511d892e2080020a0f4c9,47.5329806,-53.2150917,,Newfoundland and Labrador,1000000,1996-03-29,Newfoundland Labrador-Fisheries and Land Resources
AACYQ,Bryant's Cove,Undetermined,,Town,Populated Place,TOWN,3a9135f2c6cd11d892e2080020a0f4c9,47.6760917,-53.1930222,Harbour Grace,Newfoundland and Labrador,50000,1997-01-01,Newfoundland Labrador-Fisheries and Land Resources
ACGAI,Buchans,Undetermined,,Town,Populated Place,TOWN,76cec70ed05511d892e2080020a0f4c9,48.8238,-56.8490694,,Newfoundland and Labrador,7500000,1996-03-29,Newfoundland Labrador-Fisheries and Land Resources
AADBW,Burgeo,Undetermined,,Town,Populated Place,TOWN,e0b6f87dd05311d892e2080020a0f4c9,47.6199167,-57.6216334,,Newfoundland and Labrador,7500000,1996-03-29,Newfoundland Labrador-Fisheries and Land Resources
AADCE,Burin,Undetermined,,Town,Populated Place,TOWN,e0cd66afd05311d892e2080020a0f4c9,47.082841,-55.175272,,Newfoundland and Labrador,7500000,2002-01-01,Newfoundland Labrador-Fisheries and Land Resources
AADCQ,Burlington,Undetermined,,Town,Populated Place,TOWN,3aaf4545c6cd11d892e2080020a0f4c9,49.7501528,-56.0174223,,Newfoundland and Labrador,250000,1997-01-01,Newfoundland Labrador-Fisheries and Land Resources
ABAYX,Burnt Islands,Undetermined,,Town,Populated Place,TOWN,d6d7815ed05311d892e2080020a0f4c9,47.6141944,-58.8701306,,Newfoundland and Labrador,250000,1996-03-29,Newfoundland Labrador-Fisheries and Land Resources
AADLR,Campbellton,Undetermined,,Town,Populated Place,TOWN,e104a354d05311d892e2080020a0f4c9,49.2705194,-54.9319306,,Newfoundland and Labrador,1000000,1996-04-04,Newfoundland Labrador-Fisheries and Land Resources
AASVB,Cape Broyle,Undetermined,,Town,Populated Place,TOWN,381cdb54c6cd11d892e2080020a0f4c9,47.0965195,-52.9414917,Ferryland,Newfoundland and Labrador,1000000,1997-01-01,Newfoundland Labrador-Fisheries and Land Resources
ACRCX,Cape St. George,Undetermined,,Town,Populated Place,TOWN,2d535c13c6ce11d892e2080020a0f4c9,48.4957027,-59.1849305,,Newfoundland and Labrador,1000000,2000-09-29,Newfoundland Labrador-Fisheries and Land Resources
AADOD,Carbonear,Undetermined,,Town,Populated Place,TOWN,e1326a18d05311d892e2080020a0f4c9,47.7315028,-53.2326611,Carbonear,Newfoundland and Labrador,7500000,1996-04-04,Newfoundland Labrador-Fisheries and Land Resources
AADPF,Carmanville,Undetermined,,Town,Populated Place,TOWN,e13ddbc9d05311d892e2080020a0f4c9,49.3673055,-54.2905694,,Newfoundland and Labrador,1000000,1996-04-04,Newfoundland Labrador-Fisheries and Land Resources
AADQK,Cartwright,Undetermined,,Town,Populated Place,TOWN,3b161d6fc6cd11d892e2080020a0f4c9,53.693779,-56.970056,,Newfoundland and Labrador,7500000,1997-01-01,Newfoundland Labrador-Fisheries and Land Resources
ABYRR,Centreville-Wareham-Trinity,Undetermined,,Town,Populated Place,TOWN,0b33051fd05511d892e2080020a0f4c9,49.0000278,-53.9206694,Bonavista North,Newfoundland and Labrador,1000000,1996-04-04,Newfoundland Labrador-Fisheries and Land Resources
AADUM,Chance Cove,Undetermined,,Town,Populated Place,TOWN,6c8fcac8d05511d892e2080020a0f4c9,47.6666472,-53.830925,,Newfoundland and Labrador,1000000,1996-04-04,Newfoundland Labrador-Fisheries and Land Resources
AADVB,Change Islands,Undetermined,,Town,Populated Place,TOWN,e15f467cd05311d892e2080020a0f4c9,49.6689444,-54.4037223,,Newfoundland and Labrador,1000000,1996-04-04,Newfoundland Labrador-Fisheries and Land Resources
AADVG,Channel-Port aux Basques,Undetermined,,Town,Populated Place,TOWN,7a18e947d05511d892e2080020a0f4c9,47.5955806,-59.1352917,,Newfoundland and Labrador,15000000,1996-04-04,Newfoundland Labrador-Fisheries and Land Resources
AADVM,Chapel Arm,Undetermined,,Town,Populated Place,TOWN,1cdc5fefc6be11d892e2080020a0f4c9,47.5049111,-53.6661916,Bellevue,Newfoundland and Labrador,1000000,2001-02-16,Newfoundland Labrador-Fisheries and Land Resources
ABEZM,Charlottetown,Undetermined,,Town,Populated Place,TOWN,2b9447c8c6ce11d892e2080020a0f4c9,52.7657222,-56.1453,Eagle River,Newfoundland and Labrador,1000000,1997-01-01,Newfoundland Labrador-Fisheries and Land Resources
AAEBC,Clarenville,Undetermined,,Town,Populated Place,TOWN,e18df7a0d05311d892e2080020a0f4c9,48.1881389,-54.0557138,,Newfoundland and Labrador,7500000,1996-06-30,Newfoundland Labrador-Fisheries and Land Resources
AAEBH,Clarke's Beach,Undetermined,,Town,Populated Place,TOWN,6c9aee59d05511d892e2080020a0f4c9,47.5320167,-53.303675,,Newfoundland and Labrador,1000000,1996-04-04,Newfoundland Labrador-Fisheries and Land Resources
AAEDX,Coachman's Cove,Undetermined,,Town,Populated Place,TOWN,3b83ac5ac6cd11d892e2080020a0f4c9,50.0681694,-56.1237305,Baie Verte-White Bay,Newfoundland and Labrador,250000,1997-01-01,Newfoundland Labrador-Fisheries and Land Resources
AAEHC,Colinet,Undetermined,,Town,Populated Place,TOWN,3bb4a76fc6cd11d892e2080020a0f4c9,47.2195306,-53.5480611,St. Mary's-The Capes,Newfoundland and Labrador,1000000,1997-01-01,Newfoundland Labrador-Fisheries and Land Resources
ABFCC,Colliers,Undetermined,,Town,Populated Place,TOWN,edbf9c49d05311d892e2080020a0f4c9,47.4503222,-53.2482889,,Newfoundland and Labrador,250000,1996-04-04,Newfoundland Labrador-Fisheries and Land Resources
AAEIN,Come By Chance,Undetermined,,Town,Populated Place,TOWN,6caec47ad05511d892e2080020a0f4c9,47.8415167,-53.9847806,Bellevue,Newfoundland and Labrador,1000000,1996-04-04,Newfoundland Labrador-Fisheries and Land Resources
AAEIU,Comfort Cove-Newstead,Undetermined,,Town,Populated Place,TOWN,2a79fe0dc6ce11d892e2080020a0f4c9,49.3581556,-54.8758195,,Newfoundland and Labrador,250000,1997-01-01,Newfoundland Labrador-Fisheries and Land Resources
AAEJC,Conception Bay South,Undetermined,,Town,Populated Place,TOWN,e1d5af06d05311d892e2080020a0f4c9,47.4907778,-52.9951111,Conception Bay South,Newfoundland and Labrador,1000000,1996-04-04,Newfoundland Labrador-Fisheries and Land Resources
AAEJD,Conception Harbour,Undetermined,,Town,Populated Place,TOWN,6cbbe3dbd05511d892e2080020a0f4c9,47.438575,-53.2239,Harbour Main,Newfoundland and Labrador,250000,1996-04-04,Newfoundland Labrador-Fisheries and Land Resources
AAEJG,Conche,Undetermined,,Town,Populated Place,TOWN,399888dfc6ce11d892e2080020a0f4c9,50.8955084,-55.8866667,,Newfoundland and Labrador,1000000,1997-01-01,Newfoundland Labrador-Fisheries and Land Resources
AAUZK,Cook's Harbour,Undetermined,,Town,Populated Place,TOWN,707d8010d05511d892e2080020a0f4c9,51.6078722,-55.863925,,Newfoundland and Labrador,1000000,1996-04-04,Newfoundland Labrador-Fisheries and Land Resources
AAEOL,Cormack,Undetermined,,Town,Populated Place,TOWN,3bfc5ed6c6cd11d892e2080020a0f4c9,49.31595,-57.3833639,,Newfoundland and Labrador,1000000,1997-01-01,Newfoundland Labrador-Fisheries and Land Resources
AAEOU,Corner Brook,Undetermined,,City,Populated Place,CITY,892b1f64c6be11d892e2080020a0f4c9,48.941111,-57.970278,Humber East; Humber West,Newfoundland and Labrador,15000000,1977-10-07,Newfoundland Labrador-Fisheries and Land Resources
ABAYT,Cottlesville,Undetermined,,Town,Populated Place,TOWN,d6cc84ddd05311d892e2080020a0f4c9,49.495225,-54.8545583,,Newfoundland and Labrador,50000,1996-04-04,Newfoundland Labrador-Fisheries and Land Resources
AAERC,Cow Head,Undetermined,,Town,Populated Place,TOWN,e202163ad05311d892e2080020a0f4c9,49.919725,-57.7694834,,Newfoundland and Labrador,1000000,1996-04-04,Newfoundland Labrador-Fisheries and Land Resources
AAESB,Cox's Cove,Undetermined,,Town,Populated Place,TOWN,3c0fe6d8c6cd11d892e2080020a0f4c9,49.1119861,-58.0805139,,Newfoundland and Labrador,1000000,1997-01-01,Newfoundland Labrador-Fisheries and Land Resources
AAEXO,Crow Head,Undetermined,,Town,Populated Place,TOWN,3c42417dc6cd11d892e2080020a0f4c9,49.67985,-54.7998834,,Newfoundland and Labrador,250000,1997-01-01,Newfoundland Labrador-Fisheries and Land Resources
AAFAA,Cupids,Undetermined,,Town,Populated Place,TOWN,e22332cdd05311d892e2080020a0f4c9,47.5478056,-53.2244889,Port de Grave,Newfoundland and Labrador,1000000,1996-04-04,Newfoundland Labrador-Fisheries and Land Resources
AAFDB,Daniel's Harbour,Undetermined,,Town,Populated Place,TOWN,2a84fa8ec6ce11d892e2080020a0f4c9,50.2326473,-57.5818083,,Newfoundland and Labrador,1000000,1997-01-01,Newfoundland Labrador-Fisheries and Land Resources
AAFKA,Deer Lake,Undetermined,,Town,Populated Place,TOWN,e24f9a01d05311d892e2080020a0f4c9,49.194994,-57.3897,,Newfoundland and Labrador,1000000,1996-04-04,Newfoundland Labrador-Fisheries and Land Resources
AAUZT,Dover,Undetermined,,Town,Populated Place,TOWN,708bd7f1d05511d892e2080020a0f4c9,48.8869639,-53.9537778,Bonavista North,Newfoundland and Labrador,250000,1996-04-04,Newfoundland Labrador-Fisheries and Land Resources
AAGCI,Duntara,Undetermined,,Town,Populated Place,TOWN,89de69e5c6be11d892e2080020a0f4c9,48.585975,-53.3810333,,Newfoundland and Labrador,250000,2001-10-05,Newfoundland Labrador-Fisheries and Land Resources
AAGIW,Eastport,Undetermined,,Town,Populated Place,TOWN,e2d7b5cdd05311d892e2080020a0f4c9,48.6646722,-53.7676278,,Newfoundland and Labrador,1000000,1996-04-04,Newfoundland Labrador-Fisheries and Land Resources
AAGLV,Elliston,Undetermined,,Town,Populated Place,TOWN,6d6961fad05511d892e2080020a0f4c9,48.6291611,-53.0480361,,Newfoundland and Labrador,250000,1996-04-04,Newfoundland Labrador-Fisheries and Land Resources
AAGMH,Embree,Undetermined,,Town,Populated Place,TOWN,e2ee721fd05311d892e2080020a0f4c9,49.3012472,-55.0437028,,Newfoundland and Labrador,1000000,1996-04-04,Newfoundland Labrador-Fisheries and Land Resources
AAGMV,Englee,Undetermined,,Town,Populated Place,TOWN,e2f94790d05311d892e2080020a0f4c9,50.7657028,-56.0709528,,Newfoundland and Labrador,1000000,1996-04-04,Newfoundland Labrador-Fisheries and Land Resources
AAGNE,English Harbour East,Undetermined,,Town,Populated Place,TOWN,3d91cc0ec6cd11d892e2080020a0f4c9,47.64608,-54.892783,,Newfoundland and Labrador,1000000,1997-01-01,Newfoundland Labrador-Fisheries and Land Resources
ACCRI,Fermeuse,Undetermined,,Town,Populated Place,TOWN,34aa7b77c6ce11d892e2080020a0f4c9,46.9727667,-52.977475,,Newfoundland and Labrador,1000000,1997-01-01,Newfoundland Labrador-Fisheries and Land Resources
AAGUG,Ferryland,Undetermined,,Town,Populated Place,TOWN,2b355edfc6ce11d892e2080020a0f4c9,47.0302389,-52.9056278,,Newfoundland and Labrador,7500000,1997-01-01,Newfoundland Labrador-Fisheries and Land Resources
ABTLR,Flatrock,Undetermined,,Town,Populated Place,TOWN,6f158b80d05511d892e2080020a0f4c9,47.7049611,-52.7316555,,Newfoundland and Labrador,1000000,1996-04-04,Newfoundland Labrador-Fisheries and Land Resources
AAHDA,Fleur de Lys,Undetermined,,Town,Populated Place,TOWN,e30fb5c2d05311d892e2080020a0f4c9,50.132925,-56.1570194,Baie Verte-White Bay,Newfoundland and Labrador,1000000,1996-04-04,Newfoundland Labrador-Fisheries and Land Resources
AAHDU,Flower's Cove,Undetermined,,Town,Populated Place,TOWN,e31a8b33d05311d892e2080020a0f4c9,51.29535,-56.7202694,,Newfoundland and Labrador,1000000,1996-04-04,Newfoundland Labrador-Fisheries and Land Resources
ACTKC,Fogo Island,Undetermined,,Town,Populated Place,TOWN,0d01c7e5849c20c3374946ef545a3157,49.658333,-54.1825,,Newfoundland and Labrador,50000,2011-01-14,Newfoundland Labrador-Fisheries and Land Resources
ABHYJ,Forteau,Undetermined,,Town,Populated Place,TOWN,46030d23c6cd11d892e2080020a0f4c9,51.4915611,-56.9478916,,Newfoundland and Labrador,7500000,1997-01-01,Newfoundland Labrador-Fisheries and Land Resources
AAHGF,Fortune,Undetermined,,Town,Populated Place,TOWN,e3cd3968d05311d892e2080020a0f4c9,47.0406833,-55.8614917,,Newfoundland and Labrador,1000000,1996-04-04,Newfoundland Labrador-Fisheries and Land Resources
ABOKB,Fox Cove-Mortier,Undetermined,,Town,Populated Place,TOWN,ea5fcf2dd05311d892e2080020a0f4c9,47.1023611,-55.1103778,Burin-Placentia,Newfoundland and Labrador,250000,1996-04-04,Newfoundland Labrador-Fisheries and Land Resources
AAHJA,Fox Harbour,Undetermined,,Town,Populated Place,TOWN,1d5fc0ccc6be11d892e2080020a0f4c9,47.3215,-53.8827166,,Newfoundland and Labrador,1000000,1997-01-01,Newfoundland Labrador-Fisheries and Land Resources
AAHNP,Frenchman's Cove,Undetermined,,Town,Populated Place,TOWN,3e1d433cc6cd11d892e2080020a0f4c9,47.161108,-55.41835,,Newfoundland and Labrador,250000,1997-01-01,Newfoundland Labrador-Fisheries and Land Resources
ABFNH,Gallants,Undetermined,,Town,Populated Place,TOWN,58cef3acc6ce11d892e2080020a0f4c9,48.7054861,-58.2388527,,Newfoundland and Labrador,1000000,1997-01-01,Newfoundland Labrador-Fisheries and Land Resources
ABFFT,Gambo,Undetermined,,Town,Populated Place,TOWN,9ba21db5d05511d892e2080020a0f4c9,48.7970805,-54.2125111,Bonavista North,Newfoundland and Labrador,7500000,1996-04-12,Newfoundland Labrador-Fisheries and Land Resources
AAHSV,Gander,Undetermined,,Town,Populated Place,TOWN,e404760dd05311d892e2080020a0f4c9,48.957189,-54.588561,,Newfoundland and Labrador,15000000,1996-04-12,Newfoundland Labrador-Fisheries and Land Resources
AAHUF,Garnish,Undetermined,,Town,Populated Place,TOWN,e4267d00d05311d892e2080020a0f4c9,47.215406,-55.332653,Burin-Placentia West,Newfoundland and Labrador,1000000,1996-04-12,Newfoundland Labrador-Fisheries and Land Resources
AAHUP,Gaskiers-Point La Haye,Undetermined,,Town,Populated Place,TOWN,3e3203bec6cd11d892e2080020a0f4c9,46.8841666,-53.605,St. Mary's-The Capes,Newfoundland and Labrador,50000,1997-01-01,Newfoundland Labrador-Fisheries and Land Resources
AAHUZ,Gaultois,Undetermined,,Town,Populated Place,TOWN,e431a091d05311d892e2080020a0f4c9,47.611875,-55.9137583,,Newfoundland and Labrador,1000000,1996-04-12,Newfoundland Labrador-Fisheries and Land Resources
AAHYE,Gillams,Undetermined,,Town,Populated Place,TOWN,5adf363dc6ce11d892e2080020a0f4c9,49.0194944,-58.0683389,,Newfoundland and Labrador,250000,1997-01-01,Newfoundland Labrador-Fisheries and Land Resources
ABQOU,Glenburnie-Birchy Head-Shoal Brook,Undetermined,,Town,Populated Place,TOWN,389d5fe7c6ce11d892e2080020a0f4c9,49.4507556,-57.9098889,St. Barbe,Newfoundland and Labrador,50000,1997-01-01,Newfoundland Labrador-Fisheries and Land Resources
AAHZV,Glenwood,Undetermined,,Town,Populated Place,TOWN,e45db9a5d05311d892e2080020a0f4c9,48.9809139,-54.8820444,,Newfoundland and Labrador,1000000,1996-04-12,Newfoundland Labrador-Fisheries and Land Resources
AAIAF,Glovertown,Undetermined,,Town,Populated Place,TOWN,e468dd36d05311d892e2080020a0f4c9,48.6911305,-54.0352778,,Newfoundland and Labrador,7500000,1996-04-12,Newfoundland Labrador-Fisheries and Land Resources
AAIEJ,Goose Cove East,Undetermined,,Town,Populated Place,TOWN,3e6548c3c6cd11d892e2080020a0f4c9,51.3075,-55.6272222,,Newfoundland and Labrador,50000,1997-01-01,Newfoundland Labrador-Fisheries and Land Resources
AAIHR,Grand Bank,Undetermined,,Town,Populated Place,TOWN,6d7f820cd05511d892e2080020a0f4c9,47.088906,-55.755111,,Newfoundland and Labrador,7500000,1996-04-12,Newfoundland Labrador-Fisheries and Land Resources
ABYRK,Grand Falls-Windsor,Undetermined,,Town,Populated Place,TOWN,7541be4bd05511d892e2080020a0f4c9,48.9640028,-55.6644417,Grand Falls,Newfoundland and Labrador,7500000,1996-04-12,Newfoundland Labrador-Fisheries and Land Resources
AAUUV,Grand Le Pierre,Undetermined,,Town,Populated Place,TOWN,2e34d899c6cd11d892e2080020a0f4c9,47.7732861,-54.8056084,,Newfoundland and Labrador,1000000,1997-01-01,Newfoundland Labrador-Fisheries and Land Resources
AAIVX,Greenspond,Undetermined,,Town,Populated Place,TOWN,d979a3b9d05311d892e2080020a0f4c9,49.07315,-53.5768027,,Newfoundland and Labrador,1000000,1996-04-12,Newfoundland Labrador-Fisheries and Land Resources
AAJJO,Hampden,Undetermined,,Town,Populated Place,TOWN,324a6041c6cd11d892e2080020a0f4c9,49.5396389,-56.8816277,,Newfoundland and Labrador,1000000,1997-01-01,Newfoundland Labrador-Fisheries and Land Resources
AAJKL,Hant's Harbour,Undetermined,,Town,Populated Place,TOWN,9819e7a0c6be11d892e2080020a0f4c9,47.990422,-53.276714,,Newfoundland and Labrador,1000000,1996-04-12,Newfoundland Labrador-Fisheries and Land Resources
AAJKO,Happy Adventure,Undetermined,,Town,Populated Place,TOWN,3254c082c6cd11d892e2080020a0f4c9,48.6351722,-53.7818861,,Newfoundland and Labrador,250000,1997-01-01,Newfoundland Labrador-Fisheries and Land Resources
ACRWH,Happy Valley - Goose Bay,Undetermined,,Town,Populated Place,TOWN,1ad8535bc6be11d892e2080020a0f4c9,53.341739,-60.448803,,Newfoundland and Labrador,15000000,1996-04-12,Newfoundland Labrador-Fisheries and Land Resources
AAJKQ,Harbour Breton,Undetermined,,Town,Populated Place,TOWN,980f393fc6be11d892e2080020a0f4c9,47.477522,-55.824044,,Newfoundland and Labrador,7500000,1996-04-12,Newfoundland Labrador-Fisheries and Land Resources
AAJKX,Harbour Grace,Undetermined,,Town,Populated Place,TOWN,1b4ff367c6be11d892e2080020a0f4c9,47.6796861,-53.2535888,Harbour Grace,Newfoundland and Labrador,1000000,1996-04-12,Newfoundland Labrador-Fisheries and Land Resources
ACKMW,Harbour Main-Chapel's Cove-Lakeview,Undetermined,,Town,Populated Place,TOWN,0c23d9a7849c20c3afd3abb9b251e76d,47.4118667,-53.1740194,,Newfoundland and Labrador,50000,1999-01-29,Newfoundland Labrador-Fisheries and Land Resources
AAJNN,Hare Bay,Undetermined,,Town,Populated Place,TOWN,9823f9c1c6be11d892e2080020a0f4c9,48.8591528,-54.0318361,,Newfoundland and Labrador,1000000,1996-04-12,Newfoundland Labrador-Fisheries and Land Resources
ABFOV,Hawke's Bay,Undetermined,,Town,Populated Place,TOWN,8e53ebe3c6be11d892e2080020a0f4c9,50.6168083,-57.1846972,,Newfoundland and Labrador,1000000,1996-04-12,Newfoundland Labrador-Fisheries and Land Resources
AAJUJ,Heart's Content,Undetermined,,Town,Populated Place,TOWN,8960ae59c6be11d892e2080020a0f4c9,47.8498556,-53.3549306,,Newfoundland and Labrador,1000000,1996-04-12,Newfoundland Labrador-Fisheries and Land Resources
ABOKJ,Heart's Delight-Islington,Undetermined,,Town,Populated Place,TOWN,8974f9abc6be11d892e2080020a0f4c9,47.7720722,-53.4437166,,Newfoundland and Labrador,250000,1996-04-12,Newfoundland Labrador-Fisheries and Land Resources
AAJUP,Heart's Desire,Undetermined,,Town,Populated Place,TOWN,1b59de78c6be11d892e2080020a0f4c9,47.8156361,-53.4267777,,Newfoundland and Labrador,250000,1996-04-12,Newfoundland Labrador-Fisheries and Land Resources
ACJWO,Hermitage-Sandyville,Undetermined,,Town,Populated Place,TOWN,32b704ccc6cd11d892e2080020a0f4c9,47.546214,-55.924428,,Newfoundland and Labrador,1000000,2002-05-10,Newfoundland Labrador-Fisheries and Land Resources
ABCAO,Holyrood,Undetermined,,Town,Populated Place,TOWN,6d47d037d05511d892e2080020a0f4c9,47.3458861,-53.1520305,,Newfoundland and Labrador,7500000,1999-01-29,Newfoundland Labrador-Fisheries and Land Resources
AAKFX,Howley,Undetermined,,Town,Populated Place,TOWN,986c2658c6be11d892e2080020a0f4c9,49.1572028,-57.0995333,,Newfoundland and Labrador,1000000,1996-04-12,Newfoundland Labrador-Fisheries and Land Resources
ABCNU,Hughes Brook,Undetermined,,Town,Populated Place,TOWN,3109f0e1c6cd11d892e2080020a0f4c9,48.9996805,-57.87935,Bay of Islands,Newfoundland and Labrador,250000,1997-01-01,Newfoundland Labrador-Fisheries and Land Resources
ABZCG,Humber Arm South,Undetermined,,Town,Populated Place,TOWN,7864d6ddc6be11d892e2080020a0f4c9,49.01565,-58.1677167,Bay of Islands,Newfoundland and Labrador,1000000,1996-04-12,Newfoundland Labrador-Fisheries and Land Resources
AAKKP,Indian Bay,Undetermined,,Town,Populated Place,TOWN,33083214c6cd11d892e2080020a0f4c9,49.0641139,-53.96235,Bonavista North,Newfoundland and Labrador,250000,1997-01-01,Newfoundland Labrador-Fisheries and Land Resources
ABZCF,Irishtown-Summerside,Undetermined,,Town,Populated Place,TOWN,785a287cc6be11d892e2080020a0f4c9,48.987769,-57.954761,Bay of Islands,Newfoundland and Labrador,50000,1996-04-12,Newfoundland Labrador-Fisheries and Land Resources
AAKVD,Isle aux Morts,Undetermined,,Town,Populated Place,TOWN,986177f7c6be11d892e2080020a0f4c9,47.5974223,-58.965975,,Newfoundland and Labrador,1000000,1996-04-12,Newfoundland Labrador-Fisheries and Land Resources
AAKWW,Jackson's Arm,Undetermined,,Town,Populated Place,TOWN,4a558293c6ce11d892e2080020a0f4c9,49.8652223,-56.8048306,Humber Valley,Newfoundland and Labrador,1000000,1997-01-01,Newfoundland Labrador-Fisheries and Land Resources
AALJP,Keels,Undetermined,,Town,Populated Place,TOWN,5002c159c6ce11d892e2080020a0f4c9,48.6019445,-53.4074445,,Newfoundland and Labrador,250000,1997-01-01,Newfoundland Labrador-Fisheries and Land Resources
AALOV,King's Cove,Undetermined,,Town,Populated Place,TOWN,2cd440f7c6ce11d892e2080020a0f4c9,48.5589834,-53.3732611,,Newfoundland and Labrador,1000000,1997-01-01,Newfoundland Labrador-Fisheries and Land Resources
AALPI,King's Point,Undetermined,,Town,Populated Place,TOWN,992d7a9ac6be11d892e2080020a0f4c9,49.5807861,-56.208,Baie Verte,Newfoundland and Labrador,1000000,2001-06-22,Newfoundland Labrador-Fisheries and Land Resources
ABOKE,Kippens,Undetermined,,Town,Populated Place,TOWN,ea6acbaed05311d892e2080020a0f4c9,48.5585444,-58.6339833,Port au Port,Newfoundland and Labrador,1000000,1996-04-19,Newfoundland Labrador-Fisheries and Land Resources
ACRCZ,L'Anse au Loup,Undetermined,,Town,Populated Place,TOWN,36a400b7c6ce11d892e2080020a0f4c9,51.525847,-56.8349304,,Newfoundland and Labrador,1000000,1997-01-01,Newfoundland Labrador-Fisheries and Land Resources
AALXL,L'Anse-au-Clair,Undetermined,,Town,Populated Place,TOWN,39a31030c6ce11d892e2080020a0f4c9,51.4637361,-57.0670944,,Newfoundland and Labrador,250000,1997-01-01,Newfoundland Labrador-Fisheries and Land Resources
ACRVB,LaScie,Undetermined,,Town,Populated Place,TOWN,daf9b32bd05311d892e2080020a0f4c9,49.949236,-55.610031,,Newfoundland and Labrador,1000000,2006-04-19,Newfoundland Labrador-Fisheries and Land Resources
ABFQA,Labrador City,Undetermined,,Town,Populated Place,TOWN,20d315f4c6be11d892e2080020a0f4c9,52.9605694,-66.9365973,,Newfoundland and Labrador,15000000,2001-06-22,Newfoundland Labrador-Fisheries and Land Resources
AALUU,Lamaline,Undetermined,,Town,Populated Place,TOWN,daabba34d05311d892e2080020a0f4c9,46.906572,-55.768875,,Newfoundland and Labrador,1000000,1996-04-19,Newfoundland Labrador-Fisheries and Land Resources
AALYM,Lark Harbour,Undetermined,,Town,Populated Place,TOWN,340b986ec6cd11d892e2080020a0f4c9,49.1055056,-58.3923611,,Newfoundland and Labrador,1000000,1997-01-01,Newfoundland Labrador-Fisheries and Land Resources
AALZL,Lawn,Undetermined,,Town,Populated Place,TOWN,db04d6bcd05311d892e2080020a0f4c9,46.93885,-55.539314,,Newfoundland and Labrador,1000000,1996-04-19,Newfoundland Labrador-Fisheries and Land Resources
ABFQF,Leading Tickles,Undetermined,,Town,Populated Place,TOWN,f890bc00d05211d892e2080020a0f4c9,49.481925,-55.4271583,,Newfoundland and Labrador,1000000,1997-12-24,Newfoundland Labrador-Fisheries and Land Resources
AAMCN,Lewin's Cove,Undetermined,,Town,Populated Place,TOWN,39acfb41c6ce11d892e2080020a0f4c9,47.0873,-55.2189528,,Newfoundland and Labrador,1000000,1997-01-01,Newfoundland Labrador-Fisheries and Land Resources
AAMDG,Lewisporte,Undetermined,,Town,Populated Place,TOWN,db1b1dded05311d892e2080020a0f4c9,49.2418083,-55.0460194,,Newfoundland and Labrador,7500000,1996-04-19,Newfoundland Labrador-Fisheries and Land Resources
AAMGB,Little Bay,Undetermined,,Town,Populated Place,TOWN,34245090c6cd11d892e2080020a0f4c9,49.5992389,-55.9518361,,Newfoundland and Labrador,250000,1997-01-01,Newfoundland Labrador-Fisheries and Land Resources
AAMGH,Little Bay East,Undetermined,,Town,Populated Place,TOWN,39b75b82c6ce11d892e2080020a0f4c9,47.555833,-54.863889,,Newfoundland and Labrador,250000,1997-01-01,Newfoundland Labrador-Fisheries and Land Resources
AAMGO,Little Bay Islands,Undetermined,,Town,Populated Place,TOWN,59b77f02c6ce11d892e2080020a0f4c9,49.6443361,-55.7974221,,Newfoundland and Labrador,250000,1997-01-01,Newfoundland Labrador-Fisheries and Land Resources
AAMIA,Little Burnt Bay,Undetermined,,Town,Populated Place,TOWN,db261a5fd05311d892e2080020a0f4c9,49.3397167,-55.0820056,,Newfoundland and Labrador,250000,1996-04-19,Newfoundland Labrador-Fisheries and Land Resources
ABTMP,Logy Bay-Middle Cove-Outer Cove,Undetermined,,Town,Populated Place,TOWN,24878149d05411d892e2080020a0f4c9,47.6366889,-52.6870083,,Newfoundland and Labrador,250000,1996-04-19,Newfoundland Labrador-Fisheries and Land Resources
ABQON,Long Harbour-Mount Arlington Heights,Undetermined,,Town,Populated Place,TOWN,7bbcae5cd05511d892e2080020a0f4c9,47.4430945,-53.782475,Placentia,Newfoundland and Labrador,250000,1996-04-19,Newfoundland Labrador-Fisheries and Land Resources
AANGX,Lord's Cove,Undetermined,,Town,Populated Place,TOWN,3491df7bc6cd11d892e2080020a0f4c9,46.8984417,-55.6587028,,Newfoundland and Labrador,1000000,1997-01-01,Newfoundland Labrador-Fisheries and Land Resources
AANIC,Lourdes,Undetermined,,Town,Populated Place,TOWN,34a5677dc6cd11d892e2080020a0f4c9,48.647823,-59.001605,,Newfoundland and Labrador,1000000,1997-01-01,Newfoundland Labrador-Fisheries and Land Resources
AANLW,Lumsden,Undetermined,,Town,Populated Place,TOWN,dbda282fd05311d892e2080020a0f4c9,49.2867583,-53.5925417,Bonavista North,Newfoundland and Labrador,1000000,1996-04-19,Newfoundland Labrador-Fisheries and Land Resources
ACRWI,Lushes Bight - Beaumont - Beaumont North,Undetermined,,Town,Populated Place,TOWN,43e473adc6cd11d892e2080020a0f4c9,49.612445,-55.699182,Baie Verte,Newfoundland and Labrador,50000,1997-01-01,Newfoundland Labrador-Fisheries and Land Resources
AANPF,Main Brook,Undetermined,,Town,Populated Place,TOWN,dbf04841d05311d892e2080020a0f4c9,51.1652528,-55.9875694,,Newfoundland and Labrador,1000000,1996-04-19,Newfoundland Labrador-Fisheries and Land Resources
AANXD,Mary's Harbour,Undetermined,,Town,Populated Place,TOWN,3500f506c6cd11d892e2080020a0f4c9,52.3152777,-55.8336001,,Newfoundland and Labrador,1000000,1997-01-01,Newfoundland Labrador-Fisheries and Land Resources
AASOD,Marystown,Undetermined,,Town,Populated Place,TOWN,70513fecd05511d892e2080020a0f4c9,47.154975,-55.1644334,,Newfoundland and Labrador,7500000,1996-04-19,Newfoundland Labrador-Fisheries and Land Resources
ABESR,Massey Drive,Undetermined,,Town,Populated Place,TOWN,edf6d8eed05311d892e2080020a0f4c9,48.9363861,-57.8927417,,Newfoundland and Labrador,250000,1996-04-19,Newfoundland Labrador-Fisheries and Land Resources
AANZJ,McIver's,Undetermined,,Town,Populated Place,TOWN,2dc4e29ec6ce11d892e2080020a0f4c9,49.0608417,-58.1094667,,Newfoundland and Labrador,250000,1997-01-01,Newfoundland Labrador-Fisheries and Land Resources
AAOAG,Meadows,Undetermined,,Town,Populated Place,TOWN,2dcef4bfc6ce11d892e2080020a0f4c9,48.996536,-58.045158,,Newfoundland and Labrador,1000000,1997-01-01,Newfoundland Labrador-Fisheries and Land Resources
AASOE,Middle Arm,Undetermined,,Town,Populated Place,TOWN,7beea146c5f711d892e2080020a0f4c9,49.7030277,-56.1148445,Baie Verte,Newfoundland and Labrador,1000000,1998-07-17,Newfoundland Labrador-Fisheries and Land Resources
AAOIL,Miles Cove,Undetermined,,Town,Populated Place,TOWN,352d5c3ac6cd11d892e2080020a0f4c9,49.5401528,-55.7958777,,Newfoundland and Labrador,250000,1997-01-01,Newfoundland Labrador-Fisheries and Land Resources
AAOJL,Millertown,Undetermined,,Town,Populated Place,TOWN,3537203bc6cd11d892e2080020a0f4c9,48.8119444,-56.5430555,,Newfoundland and Labrador,1000000,1997-01-01,Newfoundland Labrador-Fisheries and Land Resources
ACRWK,Milltown-Head of Bay d'Espoir,Undetermined,,Town,Populated Place,TOWN,792a4372d05511d892e2080020a0f4c9,47.925892,-55.744281,Burgeo-Bay d'Espoir,Newfoundland and Labrador,1000000,1996-04-19,Newfoundland Labrador-Fisheries and Land Resources
AAOKQ,Ming's Bight,Undetermined,,Town,Populated Place,TOWN,59c22d63c6ce11d892e2080020a0f4c9,49.9747833,-56.0409167,,Newfoundland and Labrador,1000000,1997-01-01,Newfoundland Labrador-Fisheries and Land Resources
AAORU,Morrisville,Undetermined,,Town,Populated Place,TOWN,357ed7a2c6cd11d892e2080020a0f4c9,47.882844,-55.767158,,Newfoundland and Labrador,250000,1997-01-01,Newfoundland Labrador-Fisheries and Land Resources
ACRUW,Mount Carmel-Mitchells Brook-St. Catherine's,Undetermined,,Town,Populated Place,TOWN,6eb14b67d05511d892e2080020a0f4c9,47.186478,-53.422992,St. Mary's-The Capes,Newfoundland and Labrador,250000,1996-04-19,Newfoundland Labrador-Fisheries and Land Resources
AAOUG,Mount Moriah,Undetermined,,Town,Populated Place,TOWN,dcb98bc3d05311d892e2080020a0f4c9,48.9583917,-58.0708694,,Newfoundland and Labrador,250000,1996-03-19,Newfoundland Labrador-Fisheries and Land Resources
ABFRS,Mount Pearl,Undetermined,,City,Populated Place,CITY,2bb31a6bc6ce11d892e2080020a0f4c9,47.5195306,-52.8118056,,Newfoundland and Labrador,1000000,1988-07-21,Newfoundland Labrador-Fisheries and Land Resources
AAOZP,Musgrave Harbour,Undetermined,,Town,Populated Place,TOWN,6f5839d6d05511d892e2080020a0f4c9,49.4167028,-53.9644222,Fogo,Newfoundland and Labrador,7500000,1996-04-19,Newfoundland Labrador-Fisheries and Land Resources
AAOZT,Musgravetown,Undetermined,,Town,Populated Place,TOWN,dcfbc4e9d05311d892e2080020a0f4c9,48.4140306,-53.8921305,,Newfoundland and Labrador,1000000,1996-04-19,Newfoundland Labrador-Fisheries and Land Resources
AAPIU,New Perlican,Undetermined,,Town,Populated Place,TOWN,dd618ba2d05311d892e2080020a0f4c9,47.9069389,-53.3271,,Newfoundland and Labrador,250000,1996-04-19,Newfoundland Labrador-Fisheries and Land Resources
ACGTR,New-Wes-Valley,Undetermined,,Town,Populated Place,TOWN,f7808468d05211d892e2080020a0f4c9,49.1531389,-53.6266722,Bonavista North,Newfoundland and Labrador,1000000,1996-07-12,Newfoundland Labrador-Fisheries and Land Resources
AAPLC,Nippers Harbour,Undetermined,,Town,Populated Place,TOWN,35f5b55ec6cd11d892e2080020a0f4c9,49.7933334,-55.8702778,,Newfoundland and Labrador,250000,1997-01-01,Newfoundland Labrador-Fisheries and Land Resources
ABQOM,Norman's Cove-Long Cove,Undetermined,,Town,Populated Place,TOWN,7813f7b6c6be11d892e2080020a0f4c9,47.5459305,-53.6899055,Bellevue,Newfoundland and Labrador,250000,2001-02-16,Newfoundland Labrador-Fisheries and Land Resources
AAPNF,Norris Arm,Undetermined,,Town,Populated Place,TOWN,dd828125d05311d892e2080020a0f4c9,49.0773444,-55.2379028,Lewisporte,Newfoundland and Labrador,1000000,1996-04-19,Newfoundland Labrador-Fisheries and Land Resources
ACCRG,Norris Point,Undetermined,,Town,Populated Place,TOWN,fec61870c6cd11d892e2080020a0f4c9,49.5194444,-57.8725,St. Barbe South,Newfoundland and Labrador,1000000,1997-01-01,Newfoundland Labrador-Fisheries and Land Resources
AAPVG,North River,Undetermined,,Town,Populated Place,TOWN,5883e0e5c6ce11d892e2080020a0f4c9,47.54345,-53.3130305,Port de Grave,Newfoundland and Labrador,250000,1997-01-01,Newfoundland Labrador-Fisheries and Land Resources
AAQAF,North West River,Undetermined,,Town,Populated Place,TOWN,ddbc55dad05311d892e2080020a0f4c9,53.53545,-60.1440055,,Newfoundland and Labrador,7500000,1996-04-19,Newfoundland Labrador-Fisheries and Land Resources
AAPRK,Northern Arm,Undetermined,,Town,Populated Place,TOWN,dd9a4ee7d05311d892e2080020a0f4c9,49.1861222,-55.3862583,,Newfoundland and Labrador,250000,1996-04-19,Newfoundland Labrador-Fisheries and Land Resources
AAQHY,Old Perlican,Undetermined,,Town,Populated Place,TOWN,ddde35bdd05311d892e2080020a0f4c9,48.0871306,-52.9944472,,Newfoundland and Labrador,1000000,1996-04-26,Newfoundland Labrador-Fisheries and Land Resources
AAQON,Pacquet,Undetermined,,Town,Populated Place,TOWN,365a6aa8c6cd11d892e2080020a0f4c9,49.992475,-55.8973083,,Newfoundland and Labrador,250000,1997-01-01,Newfoundland Labrador-Fisheries and Land Resources
AAQPU,Paradise,Undetermined,,Town,Populated Place,TOWN,7622f69fd05511d892e2080020a0f4c9,47.5346416,-52.8839778,,Newfoundland and Labrador,50000,1996-04-26,Newfoundland Labrador-Fisheries and Land Resources
AAQQT,Parkers Cove,Undetermined,,Town,Populated Place,TOWN,366e67dac6cd11d892e2080020a0f4c9,47.3984917,-54.8605778,,Newfoundland and Labrador,1000000,1997-01-01,Newfoundland Labrador-Fisheries and Land Resources
AAQRQ,Parson's Pond,Undetermined,,Town,Populated Place,TOWN,3682650cc6cd11d892e2080020a0f4c9,50.0369278,-57.6969917,,Newfoundland and Labrador,1000000,1997-01-01,Newfoundland Labrador-Fisheries and Land Resources
ABAOL,Pasadena,Undetermined,,Town,Populated Place,TOWN,6cdd4e8ed05511d892e2080020a0f4c9,49.0119334,-57.5684833,Bonavista North,Newfoundland and Labrador,7500000,1996-04-26,Newfoundland Labrador-Fisheries and Land Resources
AAQYM,Peterview,Undetermined,,Town,Populated Place,TOWN,de0f09c1d05311d892e2080020a0f4c9,49.1074583,-55.3388167,,Newfoundland and Labrador,250000,1996-04-26,Newfoundland Labrador-Fisheries and Land Resources
ABQOI,Petty Harbour-Maddox Cove,Undetermined,,Town,Populated Place,TOWN,0cad0427849c20c39119907b0f7584de,47.4731556,-52.7071833,Ferryland,Newfoundland and Labrador,50000,1969-03-05,Newfoundland Labrador-Fisheries and Land Resources
AAREE,Pilley's Island,Undetermined,,Town,Populated Place,TOWN,36bf9522c6cd11d892e2080020a0f4c9,49.5277056,-55.7158528,,Newfoundland and Labrador,250000,1997-01-01,Newfoundland Labrador-Fisheries and Land Resources
AARGO,Pinware,Undetermined,,Town,Populated Place,TOWN,36d42e94c6cd11d892e2080020a0f4c9,51.6219444,-56.7138889,,Newfoundland and Labrador,1000000,1997-01-01,Newfoundland Labrador-Fisheries and Land Resources
AARHJ,Placentia,Undetermined,,Town,Populated Place,TOWN,1c2a9c0dc6be11d892e2080020a0f4c9,47.2705222,-53.9050916,Placentia,Newfoundland and Labrador,7500000,1996-04-26,Newfoundland Labrador-Fisheries and Land Resources
AARJK,Point Lance,Undetermined,,Town,Populated Place,TOWN,39c209e3c6ce11d892e2080020a0f4c9,46.8261611,-54.085025,St. Mary's-The Capes,Newfoundland and Labrador,250000,1997-01-01,Newfoundland Labrador-Fisheries and Land Resources
AARJL,Point Leamington,Undetermined,,Town,Populated Place,TOWN,de3bbf15d05311d892e2080020a0f4c9,49.3198666,-55.4141,,Newfoundland and Labrador,1000000,1996-04-26,Newfoundland Labrador-Fisheries and Land Resources
AARJN,Point May,Undetermined,,Town,Populated Place,TOWN,2e21cfb7c6ce11d892e2080020a0f4c9,46.9452555,-55.9358056,,Newfoundland and Labrador,1000000,1997-01-01,Newfoundland Labrador-Fisheries and Land Resources
ABDIY,Point au Gaul,Undetermined,,Town,Populated Place,TOWN,2b74b1d5c6ce11d892e2080020a0f4c9,46.8671222,-55.7472111,,Newfoundland and Labrador,250000,1997-01-01,Newfoundland Labrador-Fisheries and Land Resources
AARJP,Point of Bay,Undetermined,,Town,Populated Place,TOWN,37080fd9c6cd11d892e2080020a0f4c9,49.2770277,-55.2679083,,Newfoundland and Labrador,250000,1997-01-01,Newfoundland Labrador-Fisheries and Land Resources
AARLO,Pool's Cove,Undetermined,,Town,Populated Place,TOWN,371ef33bc6cd11d892e2080020a0f4c9,47.68255,-55.4343944,,Newfoundland and Labrador,250000,1997-01-01,Newfoundland Labrador-Fisheries and Land Resources
AARNF,Port Anson,Undetermined,,Town,Populated Place,TOWN,37327b3dc6cd11d892e2080020a0f4c9,49.5366639,-55.8520028,,Newfoundland and Labrador,250000,1997-01-01,Newfoundland Labrador-Fisheries and Land Resources
AARNN,Port Blandford,Undetermined,,Town,Populated Place,TOWN,702ffc49d05511d892e2080020a0f4c9,48.3414861,-54.1775472,Terra Nova,Newfoundland and Labrador,1000000,1996-04-26,Newfoundland Labrador-Fisheries and Land Resources
AARNV,Port Hope Simpson,Undetermined,,Town,Populated Place,TOWN,2e366929c6ce11d892e2080020a0f4c9,52.5433334,-56.2977778,,Newfoundland and Labrador,7500000,1997-01-01,Newfoundland Labrador-Fisheries and Land Resources
ABDIJ,Port Kirwan,Undetermined,,Town,Populated Place,TOWN,2b68f204c6ce11d892e2080020a0f4c9,46.9822056,-52.9176361,,Newfoundland and Labrador,250000,1999-10-15,Newfoundland Labrador-Fisheries and Land Resources
AAROF,Port Rexton,Undetermined,,Town,Populated Place,TOWN,59cc6694c6ce11d892e2080020a0f4c9,48.3995278,-53.3245444,,Newfoundland and Labrador,1000000,1997-01-01,Newfoundland Labrador-Fisheries and Land Resources
AAROJ,Port Saunders,Undetermined,,Town,Populated Place,TOWN,de5d02b8d05311d892e2080020a0f4c9,50.6620167,-57.2538723,,Newfoundland and Labrador,1000000,1996-04-26,Newfoundland Labrador-Fisheries and Land Resources
AARNH,Port au Choix,Undetermined,,Town,Populated Place,TOWN,701a0347d05511d892e2080020a0f4c9,50.7050139,-57.3270028,,Newfoundland and Labrador,7500000,1996-04-26,Newfoundland Labrador-Fisheries and Land Resources
ABTQR,Port au Port East,Undetermined,,Town,Populated Place,TOWN,2efdfefcc6ce11d892e2080020a0f4c9,48.5804306,-58.6711361,,Newfoundland and Labrador,250000,1997-01-01,Newfoundland Labrador-Fisheries and Land Resources
AARNM,Port au Port West-Aguathuna-Felix Cove,Undetermined,,Town,Populated Place,TOWN,7024ffc8d05511d892e2080020a0f4c9,48.54625,-58.7731222,Port au Port,Newfoundland and Labrador,50000,1996-04-26,Newfoundland Labrador-Fisheries and Land Resources
AAROP,Portugal Cove South,Undetermined,,Town,Populated Place,TOWN,388718c5c6ce11d892e2080020a0f4c9,46.7044445,-53.2561111,,Newfoundland and Labrador,1000000,1997-01-01,Newfoundland Labrador-Fisheries and Land Resources
ACGPK,Portugal Cove-St. Philip's,Undetermined,,Town,Populated Place,TOWN,135821e9d05511d892e2080020a0f4c9,47.6254028,-52.8380222,Placentia,Newfoundland and Labrador,1000000,1996-04-26,Newfoundland Labrador-Fisheries and Land Resources
ACGAT,Pouch Cove,Undetermined,,Town,Populated Place,TOWN,0e029f21d05511d892e2080020a0f4c9,47.7464916,-52.7774333,,Newfoundland and Labrador,1000000,1996-04-26,Newfoundland Labrador-Fisheries and Land Resources
ABIRK,Raleigh,Undetermined,,Town,Populated Place,TOWN,45b1439bc6cd11d892e2080020a0f4c9,51.5588889,-55.7286111,Strait of Belle Isle,Newfoundland and Labrador,1000000,1997-01-01,Newfoundland Labrador-Fisheries and Land Resources
ABIRS,Ramea,Undetermined,,Town,Populated Place,TOWN,ecbf6a42d05311d892e2080020a0f4c9,47.5206972,-57.3944695,,Newfoundland and Labrador,1000000,1996-04-26,Newfoundland Labrador-Fisheries and Land Resources
ABGRO,Red Bay,Undetermined,,Town,Populated Place,TOWN,39d65535c6ce11d892e2080020a0f4c9,51.7327778,-56.4277778,,Newfoundland and Labrador,1000000,1997-01-01,Newfoundland Labrador-Fisheries and Land Resources
AATHI,Red Harbour,Undetermined,,Town,Populated Place,TOWN,38b48783c6cd11d892e2080020a0f4c9,47.2927334,-55.002225,,Newfoundland and Labrador,1000000,1997-01-01,Newfoundland Labrador-Fisheries and Land Resources
